$GPRMC,151803.00,A,3026.86961,N,09747.02309,W,0.289,,040816,,,D*63
$GPVTG,,T,,M,0.289,N,0.536,K,D*25
$GPGGA,151803.00,3026.86961,N,09747.02309,W,2,09,1.36,298.7,M,-24.0,M,,0000*63
$GPGSA,A,3,46,30,17,51,01,11,13,07,08,,,,2.69,1.36,2.32*07
$GPGSV,4,1,14,01,39,095,22,07,60,128,29,08,15,043,16,09,06,177,*7D
$GPGSV,4,2,14,11,45,069,20,13,24,304,17,15,00,323,,17,46,230,28*7A
$GPGSV,4,3,14,19,18,224,08,28,51,325,11,30,84,054,23,46,58,180,30*76
$GPGSV,4,4,14,48,38,234,,51,53,198,31*7E
$GPGLL,3026.86961,N,09747.02309,W,151803.00,A,D*72
$GPRMC,151804.00,A,3026.86961,N,09747.02319,W,0.328,,040816,,,D*6F
$GPVTG,,T,,M,0.328,N,0.607,K,D*2E
$GPGGA,151804.00,3026.86961,N,09747.02319,W,2,09,1.36,299.1,M,-24.0,M,,0000*62
$GPGSA,A,3,46,30,17,51,01,11,13,07,08,,,,2.69,1.36,2.32*07
$GPGSV,4,1,14,01,39,095,23,07,60,128,29,08,15,043,17,09,06,177,*7D
$GPGSV,4,2,14,11,45,069,20,13,24,304,19,15,00,323,,17,46,230,27*7B
$GPGSV,4,3,14,19,18,224,13,28,51,325,11,30,84,054,24,46,58,180,30*7B
$GPGSV,4,4,14,48,38,234,,51,53,198,30*7F
$GPGLL,3026.86961,N,09747.02319,W,151804.00,A,D*74
$GPRMC,151805.00,A,3026.86927,N,09747.02320,W,0.078,,040816,,,D*60
$GPVTG,,T,,M,0.078,N,0.145,K,D*29
$GPGGA,151805.00,3026.86927,N,09747.02320,W,2,10,1.36,299.1,M,-24.0,M,,0000*63
$GPGSA,A,3,46,30,17,51,01,11,28,13,07,08,,,2.69,1.36,2.32*0D
$GPGSV,4,1,14,01,39,095,23,07,60,128,29,08,15,043,16,09,06,177,*7C
$GPGSV,4,2,14,11,45,069,20,13,24,304,18,15,00,323,,17,46,230,27*7A
$GPGSV,4,3,14,19,18,224,14,28,51,325,11,30,84,054,24,46,58,180,29*74
$GPGSV,4,4,14,48,38,234,,51,53,198,30*7F
$GPGLL,3026.86927,N,09747.02320,W,151805.00,A,D*7D
$GPRMC,151806.00,A,3026.86898,N,09747.02324,W,0.142,,040816,,,D*6A
$GPVTG,,T,,M,0.142,N,0.262,K,D*27
$GPGGA,151806.00,3026.86898,N,09747.02324,W,2,10,1.36,299.2,M,-24.0,M,,0000*62
$GPGSA,A,3,46,30,17,51,01,11,28,13,07,08,,,2.69,1.36,2.32*0D
$GPGSV,4,1,14,01,39,095,23,07,60,128,29,08,15,043,16,09,06,177,*7C
$GPGSV,4,2,14,11,45,069,19,13,24,304,18,15,00,323,,17,46,230,27*70
$GPGSV,4,3,14,19,18,224,15,28,51,325,10,30,84,054,22,46,58,180,30*7A
$GPGSV,4,4,14,48,38,234,,51,53,198,30*7F
$GPGLL,3026.86898,N,09747.02324,W,151806.00,A,D*7F
$GPRMC,151807.00,A,3026.86878,N,09747.02333,W,0.371,,040816,,,D*61
$GPVTG,,T,,M,0.371,N,0.687,K,D*2A
$GPGGA,151807.00,3026.86878,N,09747.02333,W,2,10,1.36,300.1,M,-24.0,M,,0000*69
$GPGSA,A,3,46,30,17,51,01,11,28,13,07,08,,,2.69,1.36,2.32*0D
$GPGSV,4,1,14,01,39,095,24,07,60,128,29,08,15,043,17,09,06,177,*7A
$GPGSV,4,2,14,11,45,069,19,13,24,304,18,15,00,323,,17,46,230,27*70
$GPGSV,4,3,14,19,18,224,12,28,51,325,11,30,84,054,21,46,58,180,30*7F
$GPGSV,4,4,14,48,38,234,,51,53,198,30*7F
$GPGLL,3026.86878,N,09747.02333,W,151807.00,A,D*76
$GPRMC,151808.00,A,3026.86890,N,09747.02338,W,0.160,,040816,,,D*61
$GPVTG,,T,,M,0.160,N,0.296,K,D*2C
$GPGGA,151808.00,3026.86890,N,09747.02338,W,2,09,1.36,300.3,M,-24.0,M,,0000*61
$GPGSA,A,3,46,30,17,51,01,11,13,07,08,,,,2.69,1.36,2.32*07
$GPGSV,4,1,14,01,39,095,23,07,60,128,29,08,15,043,18,09,06,177,*72
$GPGSV,4,2,14,11,45,069,18,13,24,304,18,15,00,323,,17,46,230,27*71
$GPGSV,4,3,14,19,18,224,12,28,51,325,09,30,84,054,23,46,58,180,30*74
$GPGSV,4,4,14,48,38,234,,51,53,198,30*7F
$GPGLL,3026.86890,N,09747.02338,W,151808.00,A,D*74
$GPRMC,151809.00,A,3026.86906,N,09747.02349,W,0.147,,040816,,,D*6D
$GPVTG,,T,,M,0.147,N,0.273,K,D*22
$GPGGA,151809.00,3026.86906,N,09747.02349,W,2,10,1.36,300.7,M,-24.0,M,,0000*64
$GPGSA,A,3,46,30,17,51,01,11,28,13,07,08,,,2.69,1.36,2.32*0D
$GPGSV,4,1,14,01,39,095,23,07,60,128,29,08,15,043,18,09,06,177,*72
$GPGSV,4,2,14,11,45,069,17,13,24,304,18,15,00,323,,17,46,230,28*71
$GPGSV,4,3,14,19,18,224,12,28,51,325,11,30,84,054,23,46,58,180,30*7D
$GPGSV,4,4,14,48,38,234,,51,53,198,30*7F
$GPGLL,3026.86906,N,09747.02349,W,151809.00,A,D*7D
$GPRMC,151810.00,A,3026.86918,N,09747.02356,W,0.163,,040816,,,D*62
$GPVTG,,T,,M,0.163,N,0.303,K,D*22
$GPGGA,151810.00,3026.86918,N,09747.02356,W,2,09,1.16,301.0,M,-24.0,M,,0000*61
$GPGSA,A,3,46,30,17,51,01,11,28,13,07,,,,2.74,1.16,2.48*06
$GPGSV,4,1,14,01,39,095,23,07,60,128,29,08,15,043,19,09,06,177,*73
$GPGSV,4,2,14,11,45,069,17,13,24,304,18,15,00,323,,17,46,230,28*71
$GPGSV,4,3,14,19,18,224,15,28,51,325,11,30,84,054,23,46,58,180,30*7A
$GPGSV,4,4,14,48,38,234,,51,53,198,29*77
$GPGLL,3026.86918,N,09747.02356,W,151810.00,A,D*74
$GPRMC,151811.00,A,3026.86865,N,09747.02340,W,0.480,,040816,,,D*67
$GPVTG,,T,,M,0.480,N,0.888,K,D*22
$GPGGA,151811.00,3026.86865,N,09747.02340,W,2,09,1.16,301.0,M,-24.0,M,,0000*6C
$GPGSA,A,3,46,30,17,51,01,11,28,13,07,,,,2.74,1.16,2.48*06
$GPGSV,4,1,14,01,39,095,23,07,60,128,28,08,15,043,18,09,06,177,04*77
$GPGSV,4,2,14,11,45,069,17,13,24,304,18,15,00,323,,17,46,230,28*71
$GPGSV,4,3,14,19,18,224,15,28,51,325,12,30,84,054,23,46,58,180,30*79
$GPGSV,4,4,14,48,38,234,,51,53,198,30*7F
$GPGLL,3026.86865,N,09747.02340,W,151811.00,A,D*79
$GPRMC,151812.00,A,3026.86844,N,09747.02335,W,0.547,,040816,,,D*6F
$GPVTG,,T,,M,0.547,N,1.013,K,D*23
$GPGGA,151812.00,3026.86844,N,09747.02335,W,2,08,1.41,301.2,M,-24.0,M,,0000*6F
$GPGSA,A,3,46,30,17,51,01,11,13,07,,,,,3.14,1.41,2.80*0D
$GPGSV,4,1,14,01,39,095,23,07,60,128,28,08,15,043,18,09,06,177,08*7B
$GPGSV,4,2,14,11,45,069,18,13,24,304,18,15,00,323,,17,46,230,27*71
$GPGSV,4,3,14,19,18,224,16,28,51,325,,30,84,054,24,46,58,180,30*7E
$GPGSV,4,4,14,48,38,234,,51,53,198,30*7F
$GPGLL,3026.86844,N,09747.02335,W,151812.00,A,D*7B
$GPRMC,151813.00,A,3026.86873,N,09747.02343,W,0.091,,040816,,,D*65
$GPVTG,,T,,M,0.091,N,0.169,K,D*20
$GPGGA,151813.00,3026.86873,N,09747.02343,W,2,08,1.41,301.3,M,-24.0,M,,0000*6A
$GPGSA,A,3,46,30,17,51,01,11,13,07,,,,,3.14,1.41,2.81*0C
$GPGSV,4,1,14,01,39,095,23,07,60,128,28,08,15,043,18,09,06,177,11*73
$GPGSV,4,2,14,11,45,069,18,13,24,304,19,15,00,323,,17,46,230,27*70
$GPGSV,4,3,14,19,18,224,17,28,51,325,,30,84,054,25,46,58,180,30*7E
$GPGSV,4,4,14,48,38,234,,51,53,198,30*7F
$GPGLL,3026.86873,N,09747.02343,W,151813.00,A,D*7F
$GPRMC,151814.00,A,3026.86871,N,09747.02349,W,0.277,,040816,,,D*60
$GPVTG,,T,,M,0.277,N,0.512,K,D*22
$GPGGA,151814.00,3026.86871,N,09747.02349,W,2,09,1.36,301.5,M,-24.0,M,,0000*62
$GPGSA,A,3,46,30,17,51,01,11,13,07,08,,,,2.69,1.36,2.32*07
$GPGSV,4,1,14,01,39,095,22,07,60,128,28,08,15,043,18,09,06,177,13*70
$GPGSV,4,2,14,11,45,069,19,13,24,304,18,15,00,323,,17,46,230,27*70
$GPGSV,4,3,14,19,18,224,17,28,51,325,,30,84,054,25,46,58,180,30*7E
$GPGSV,4,4,14,48,38,234,,51,53,198,30*7F
$GPGLL,3026.86871,N,09747.02349,W,151814.00,A,D*70
$GPRMC,151815.00,A,3026.86884,N,09747.02366,W,0.472,,040816,,,D*65
$GPVTG,,T,,M,0.472,N,0.874,K,D*2C
$GPGGA,151815.00,3026.86884,N,09747.02366,W,2,09,1.37,302.0,M,-24.0,M,,0000*63
$GPGSA,A,3,46,30,17,51,01,11,13,07,08,,,,2.69,1.37,2.32*06
$GPGSV,4,1,14,01,39,095,22,07,60,128,28,08,15,043,19,09,06,177,11*73
$GPGSV,4,2,14,11,45,069,18,13,24,304,19,15,00,323,,17,46,230,27*70
$GPGSV,4,3,14,19,18,224,17,28,51,325,,30,84,054,25,46,58,180,29*76
$GPGSV,4,4,14,48,38,234,,51,53,198,30*7F
$GPGLL,3026.86884,N,09747.02366,W,151815.00,A,D*76
$GPRMC,151816.00,A,3026.86893,N,09747.02373,W,0.593,,040816,,,D*6A
$GPVTG,,T,,M,0.593,N,1.098,K,D*29
$GPGGA,151816.00,3026.86893,N,09747.02373,W,2,10,0.93,302.3,M,-24.0,M,,0000*66
$GPGSA,A,3,46,30,17,51,01,11,13,09,07,08,,,1.49,0.93,1.16*04
$GPGSV,4,1,14,01,39,095,22,07,60,128,28,08,15,043,19,09,06,177,11*73
$GPGSV,4,2,14,11,45,069,18,13,24,304,19,15,00,323,,17,46,230,27*70
$GPGSV,4,3,14,19,18,224,16,28,51,325,,30,84,054,25,46,58,180,30*7F
$GPGSV,4,4,14,48,38,234,,51,53,198,30*7F
$GPGLL,3026.86893,N,09747.02373,W,151816.00,A,D*77
$GPRMC,151817.00,A,3026.86871,N,09747.02379,W,0.271,,040816,,,D*66
$GPVTG,,T,,M,0.271,N,0.502,K,D*25
$GPGGA,151817.00,3026.86871,N,09747.02379,W,2,09,1.37,302.6,M,-24.0,M,,0000*63
$GPGSA,A,3,46,30,17,51,01,11,13,07,08,,,,2.69,1.37,2.32*06
$GPGSV,4,1,14,01,39,095,22,07,60,128,27,08,15,043,19,09,06,177,11*7C
$GPGSV,4,2,14,11,45,069,18,13,24,304,19,15,00,323,,17,46,230,28*7F
$GPGSV,4,3,14,19,18,224,18,28,51,325,,30,84,054,24,46,58,180,30*70
$GPGSV,4,4,14,48,38,234,,51,53,198,30*7F
$GPGLL,3026.86871,N,09747.02379,W,151817.00,A,D*70
$GPTXT,01,01,01,NMEA unknown msg*58
$GPRMC,151818.00,A,3026.86829,N,09747.02364,W,0.202,,040816,,,D*6C
$GPVTG,,T,,M,0.202,N,0.374,K,D*26
$GPGGA,151818.00,3026.86829,N,09747.02364,W,2,10,0.93,301.8,M,-24.0,M,,0000*67
$GPGSA,A,3,46,30,17,51,01,11,13,09,07,08,,,1.49,0.93,1.16*04
$GPGSV,4,1,14,01,40,095,21,07,60,128,27,08,15,043,17,09,06,177,10*7E
$GPGSV,4,2,14,11,45,069,18,13,24,304,19,15,00,323,,17,46,230,27*70
$GPGSV,4,3,14,19,18,224,18,28,51,325,,30,84,054,23,46,58,180,30*77
$GPGSV,4,4,14,48,38,234,,51,53,198,30*7F
$GPGLL,3026.86829,N,09747.02364,W,151818.00,A,D*7E
$GPRMC,151819.00,A,3026.86798,N,09747.02365,W,0.540,,040816,,,D*68
$GPVTG,,T,,M,0.540,N,1.000,K,D*26
$GPGGA,151819.00,3026.86798,N,09747.02365,W,2,09,1.37,302.2,M,-24.0,M,,0000*6C
$GPGSA,A,3,46,30,17,51,01,11,13,07,08,,,,2.69,1.37,2.32*06
$GPGSV,4,1,14,01,40,095,19,07,60,128,26,08,15,043,17,09,06,177,09*7C
$GPGSV,4,2,14,11,45,069,17,13,24,304,18,15,00,323,,17,46,230,27*7E
$GPGSV,4,3,14,19,18,224,16,28,51,325,,30,84,054,22,46,58,180,29*70
$GPGSV,4,4,14,48,38,234,,51,53,198,30*7F
$GPGLL,3026.86798,N,09747.02365,W,151819.00,A,D*7B
$GPRMC,151820.00,A,3026.86793,N,09747.02361,W,0.448,,040816,,,D*64
$GPVTG,,T,,M,0.448,N,0.830,K,D*25
$GPGGA,151820.00,3026.86793,N,09747.02361,W,2,09,1.37,302.1,M,-24.0,M,,0000*6A
$GPGSA,A,3,46,30,17,51,01,11,13,07,08,,,,2.69,1.37,2.32*06
$GPGSV,4,1,14,01,40,095,19,07,60,128,26,08,15,043,17,09,06,177,08*7D
$GPGSV,4,2,14,11,45,069,17,13,24,304,17,15,00,323,,17,46,230,27*71
$GPGSV,4,3,14,19,18,224,15,28,51,325,,30,84,054,22,46,58,180,29*73
$GPGSV,4,4,14,48,38,234,,51,53,198,30*7F
$GPGLL,3026.86793,N,09747.02361,W,151820.00,A,D*7E
$GPRMC,151821.00,A,3026.86784,N,09747.02352,W,0.436,,040816,,,D*6A
$GPVTG,,T,,M,0.436,N,0.807,K,D*28
$GPGGA,151821.00,3026.86784,N,09747.02352,W,2,09,1.37,302.0,M,-24.0,M,,0000*6C
$GPGSA,A,3,46,30,17,51,01,11,13,07,08,,,,2.69,1.37,2.32*06
$GPGSV,4,1,14,01,40,095,19,07,60,128,27,08,15,043,17,09,06,177,08*7C
$GPGSV,4,2,14,11,45,069,17,13,24,304,18,15,00,323,,17,46,230,26*7F
$GPGSV,4,3,14,19,18,224,16,28,51,325,,30,84,054,22,46,58,180,29*70
$GPGSV,4,4,14,48,38,234,,51,53,198,30*7F
$GPGLL,3026.86784,N,09747.02352,W,151821.00,A,D*79
$GPRMC,151822.00,A,3026.86777,N,09747.02347,W,0.343,,040816,,,D*64
$GPVTG,,T,,M,0.343,N,0.636,K,D*21
$GPGGA,151822.00,3026.86777,N,09747.02347,W,2,09,1.37,301.8,M,-24.0,M,,0000*6C
$GPGSA,A,3,46,30,17,51,01,11,13,07,08,,,,2.69,1.37,2.32*06
$GPGSV,4,1,14,01,40,095,20,07,60,128,27,08,15,043,17,09,06,177,07*79
$GPGSV,4,2,14,11,45,069,17,13,24,304,18,15,00,323,,17,46,230,26*7F
$GPGSV,4,3,14,19,18,224,16,28,51,325,,30,84,054,23,46,58,180,29*71
$GPGSV,4,4,14,48,38,234,,51,53,198,30*7F
$GPGLL,3026.86777,N,09747.02347,W,151822.00,A,D*72
$GPRMC,151823.00,A,3026.86774,N,09747.02347,W,0.206,,040816,,,D*66
$GPVTG,,T,,M,0.206,N,0.381,K,D*28
$GPGGA,151823.00,3026.86774,N,09747.02347,W,2,09,1.37,301.8,M,-24.0,M,,0000*6E
$GPGSA,A,3,46,30,17,51,01,11,13,07,08,,,,2.69,1.37,2.32*06
$GPGSV,4,1,14,01,40,095,20,07,59,129,27,08,15,043,17,09,06,177,07*72
$GPGSV,4,2,14,11,45,069,16,13,24,304,19,15,00,323,,17,46,230,26*7F
$GPGSV,4,3,14,19,18,224,17,28,51,325,,30,84,054,22,46,58,180,29*71
$GPGSV,4,4,14,48,38,234,,51,53,198,30*7F
$GPGLL,3026.86774,N,09747.02347,W,151823.00,A,D*70
$GPRMC,151824.00,A,3026.86760,N,09747.02339,W,0.277,,040816,,,D*6B
$GPVTG,,T,,M,0.277,N,0.513,K,D*23
$GPGGA,151824.00,3026.86760,N,09747.02339,W,2,09,1.37,301.4,M,-24.0,M,,0000*69
$GPGSA,A,3,46,30,17,51,01,11,13,07,08,,,,2.70,1.37,2.32*0E
$GPGSV,4,1,14,01,40,095,19,07,59,129,27,08,15,043,16,09,06,177,07*79
$GPGSV,4,2,14,11,45,069,16,13,24,304,19,15,00,323,,17,46,230,26*7F
$GPGSV,4,3,14,19,18,224,17,28,51,325,,30,84,054,22,46,58,180,29*71
$GPGSV,4,4,14,48,38,234,,51,53,198,30*7F
$GPGLL,3026.86760,N,09747.02339,W,151824.00,A,D*7B
$GPTXT,01,01,01,NMEA unknown msg*58
$GPRMC,151825.00,A,3026.86737,N,09747.02332,W,0.368,,040816,,,D*6C
$GPVTG,,T,,M,0.368,N,0.682,K,D*27
$GPGGA,151825.00,3026.86737,N,09747.02332,W,2,09,1.37,301.3,M,-24.0,M,,0000*66
$GPGSA,A,3,46,30,17,51,01,11,13,07,08,,,,2.70,1.37,2.32*0E
$GPGSV,4,1,14,01,40,095,19,07,59,129,27,08,15,043,16,09,06,177,07*79
$GPGSV,4,2,14,11,45,069,15,13,24,304,19,15,00,323,,17,46,230,26*7C
$GPGSV,4,3,14,19,18,224,17,28,51,325,,30,84,054,22,46,58,180,29*71
$GPGSV,4,4,14,48,38,234,,51,53,198,30*7F
$GPGLL,3026.86737,N,09747.02332,W,151825.00,A,D*73
$GPRMC,151826.00,A,3026.86763,N,09747.02329,W,0.189,,040816,,,D*69
$GPVTG,,T,,M,0.189,N,0.351,K,D*21
$GPGGA,151826.00,3026.86763,N,09747.02329,W,2,09,1.37,301.2,M,-24.0,M,,0000*6F
$GPGSA,A,3,46,30,17,51,01,11,13,07,08,,,,2.70,1.37,2.32*0E
$GPGSV,4,1,14,01,40,095,18,07,59,129,27,08,15,043,15,09,06,177,07*7B
$GPGSV,4,2,14,11,45,069,15,13,24,304,19,15,00,323,,17,46,230,26*7C
$GPGSV,4,3,14,19,18,224,17,28,51,325,,30,84,054,22,46,58,180,29*71
$GPGSV,4,4,14,48,38,234,,51,53,198,30*7F
$GPGLL,3026.86763,N,09747.02329,W,151826.00,A,D*7B
$GPRMC,151827.00,A,3026.86781,N,09747.02334,W,0.220,,040816,,,D*68
$GPVTG,,T,,M,0.220,N,0.407,K,D*25
$GPGGA,151827.00,3026.86781,N,09747.02334,W,2,10,1.37,301.2,M,-24.0,M,,0000*66
$GPGSA,A,3,46,30,17,51,01,11,13,09,07,08,,,2.70,1.37,2.32*07
$GPGSV,4,1,14,01,40,095,20,07,59,129,28,08,15,043,16,09,06,177,08*73
$GPGSV,4,2,14,11,45,069,15,13,24,304,20,15,00,323,,17,46,230,26*76
$GPGSV,4,3,14,19,18,224,18,28,51,325,,30,84,054,23,46,58,180,29*7F
$GPGSV,4,4,14,48,38,234,,51,53,198,30*7F
$GPGLL,3026.86781,N,09747.02334,W,151827.00,A,D*7A
$GPRMC,151828.00,A,3026.86776,N,09747.02320,W,0.292,,040816,,,D*63
$GPVTG,,T,,M,0.292,N,0.541,K,D*2F
$GPGGA,151828.00,3026.86776,N,09747.02320,W,2,10,1.37,301.0,M,-24.0,M,,0000*66
$GPGSA,A,3,46,30,17,51,01,11,13,09,07,08,,,2.70,1.37,2.32*07
$GPGSV,4,1,14,01,40,095,20,07,59,129,27,08,15,043,18,09,06,177,08*72
$GPGSV,4,2,14,11,45,069,15,13,24,304,20,15,00,323,,17,46,230,26*76
$GPGSV,4,3,14,19,18,224,18,28,51,325,,30,84,054,23,46,58,180,30*77
$GPGSV,4,4,14,48,38,234,,51,53,198,30*7F
$GPGLL,3026.86776,N,09747.02320,W,151828.00,A,D*78
$GPRMC,151829.00,A,3026.86803,N,09747.02323,W,0.230,,040816,,,D*64
$GPVTG,,T,,M,0.230,N,0.425,K,D*24
$GPGGA,151829.00,3026.86803,N,09747.02323,W,2,10,1.37,301.1,M,-24.0,M,,0000*68
$GPGSA,A,3,46,30,17,51,01,11,13,09,07,08,,,2.70,1.37,2.32*07
$GPGSV,4,1,14,01,40,095,20,07,59,129,27,08,15,043,18,09,06,177,08*72
$GPGSV,4,2,14,11,45,069,16,13,24,304,19,15,00,323,,17,46,230,26*7F
$GPGSV,4,3,14,19,18,224,18,28,51,325,,30,84,054,23,46,58,180,29*7F
$GPGSV,4,4,14,48,38,234,,51,53,198,30*7F
$GPGLL,3026.86803,N,09747.02323,W,151829.00,A,D*77
$GPRMC,151830.00,A,3026.86801,N,09747.02315,W,0.235,,040816,,,D*6E
$GPVTG,,T,,M,0.235,N,0.436,K,D*23
$GPGGA,151830.00,3026.86801,N,09747.02315,W,2,10,1.37,301.1,M,-24.0,M,,0000*67
$GPGSA,A,3,46,30,17,51,01,11,13,09,07,08,,,2.70,1.37,2.32*07
$GPGSV,4,1,14,01,40,095,20,07,59,129,27,08,15,043,18,09,06,177,08*72
$GPGSV,4,2,14,11,45,069,16,13,24,304,20,15,00,323,,17,46,230,26*75
$GPGSV,4,3,14,19,18,224,18,28,51,325,,30,84,054,23,46,58,180,29*7F
$GPGSV,4,4,14,48,38,234,,51,53,198,29*77
$GPGLL,3026.86801,N,09747.02315,W,151830.00,A,D*78
$GPTXT,01,01,01,NMEA unknown msg*58
$GPRMC,151831.00,A,3026.86829,N,09747.02310,W,0.523,,040816,,,D*60
$GPVTG,,T,,M,0.523,N,0.969,K,D*24
$GPGGA,151831.00,3026.86829,N,09747.02310,W,2,10,1.37,301.0,M,-24.0,M,,0000*68
$GPGSA,A,3,46,30,17,51,01,11,13,09,07,08,,,2.70,1.37,2.32*07
$GPGSV,4,1,14,01,40,095,20,07,59,129,27,08,15,043,18,09,06,177,08*72
$GPGSV,4,2,14,11,45,069,16,13,24,304,20,15,00,322,,17,46,230,26*74
$GPGSV,4,3,14,19,18,224,17,28,51,325,,30,84,054,23,46,58,180,29*70
$GPGSV,4,4,14,48,38,234,,51,53,198,30*7F
$GPGLL,3026.86829,N,09747.02310,W,151831.00,A,D*76
$GPRMC,151832.00,A,3026.86845,N,09747.02305,W,0.340,,040816,,,D*6E
$GPVTG,,T,,M,0.340,N,0.630,K,D*24
$GPGGA,151832.00,3026.86845,N,09747.02305,W,2,10,1.37,301.0,M,-24.0,M,,0000*65
$GPGSA,A,3,46,30,17,51,01,11,13,09,07,08,,,2.70,1.37,2.33*06
$GPGSV,4,1,14,01,40,095,19,07,59,129,27,08,15,043,18,09,06,177,08*78
$GPGSV,4,2,14,11,45,069,15,13,24,304,21,15,00,322,,17,46,230,25*75
$GPGSV,4,3,14,19,18,224,18,28,51,325,,30,84,054,23,46,58,180,29*7F
$GPGSV,4,4,14,48,38,234,,51,53,198,30*7F
$GPGLL,3026.86845,N,09747.02305,W,151832.00,A,D*7B
$GPRMC,151833.00,A,3026.86849,N,09747.02303,W,0.268,,040816,,,D*6E
$GPVTG,,T,,M,0.268,N,0.497,K,D*20
$GPGGA,151833.00,3026.86849,N,09747.02303,W,2,10,1.37,301.1,M,-24.0,M,,0000*6F
$GPGSA,A,3,46,30,17,51,01,11,13,09,07,08,,,2.70,1.37,2