$GPRMC,032402.00,A,3026.86434,N,09747.02371,W,0.160,,050816,,,D*6D
$GPVTG,,T,,M,0.160,N,0.296,K,D*2C
$GPGGA,032402.00,3026.86434,N,09747.02371,W,2,10,1.01,308.2,M,-24.0,M,,0000*69
$GPGSA,A,3,15,51,27,48,20,18,10,21,24,32,,,2.00,1.01,1.73*02
$GPGSV,4,1,13,08,07,318,22,10,47,318,24,14,24,227,08,15,18,046,14*73
$GPGSV,4,2,13,18,60,020,27,20,20,083,07,21,68,140,30,24,37,077,19*78
$GPGSV,4,3,13,27,27,289,23,32,43,236,35,46,51,180,,48,38,234,34*73
$GPGSV,4,4,13,51,53,198,29*42
$GPGLL,3026.86434,N,09747.02371,W,032402.00,A,D*79
$GPRMC,032403.00,A,3026.86427,N,09747.02363,W,0.130,,050816,,,D*68
$GPVTG,,T,,M,0.130,N,0.240,K,D*22
$GPGGA,032403.00,3026.86427,N,09747.02363,W,2,10,1.01,308.0,M,-24.0,M,,0000*6B
$GPGSA,A,3,15,51,27,48,20,18,10,21,24,32,,,2.00,1.01,1.73*02
$GPGSV,4,1,13,08,07,318,22,10,47,318,24,14,24,227,07,15,18,046,13*7B
$GPGSV,4,2,13,18,60,020,27,20,20,083,12,21,68,140,29,24,37,077,19*74
$GPGSV,4,3,13,27,27,289,23,32,43,236,35,46,51,180,,48,38,234,34*73
$GPGSV,4,4,13,51,53,198,29*42
$GPGLL,3026.86427,N,09747.02363,W,032403.00,A,D*79
$GPRMC,032404.00,A,3026.86418,N,09747.02338,W,0.171,,050816,,,D*68
$GPVTG,,T,,M,0.171,N,0.317,K,D*24
$GPGGA,032404.00,3026.86418,N,09747.02338,W,2,10,1.01,307.0,M,-24.0,M,,0000*61
$GPGSA,A,3,15,51,27,48,20,18,10,21,24,32,,,2.00,1.01,1.73*02
$GPGSV,4,1,13,08,07,318,22,10,47,318,23,14,24,227,07,15,18,046,13*7C
$GPGSV,4,2,13,18,60,020,27,20,20,083,12,21,68,140,29,24,37,077,20*7E
$GPGSV,4,3,13,27,27,289,23,32,44,236,35,46,51,180,,48,38,234,34*74
$GPGSV,4,4,13,51,53,198,29*42
$GPGLL,3026.86418,N,09747.02338,W,032404.00,A,D*7C
$GPRMC,032405.00,A,3026.86411,N,09747.02324,W,0.274,,050816,,,D*6B
$GPVTG,,T,,M,0.274,N,0.507,K,D*25
$GPGGA,032405.00,3026.86411,N,09747.02324,W,2,10,1.01,306.6,M,-24.0,M,,0000*63
$GPGSA,A,3,15,51,27,48,20,18,10,21,24,32,,,2.00,1.01,1.72*03
$GPGSV,4,1,13,08,07,318,22,10,47,318,23,14,24,227,07,15,18,046,13*7C
$GPGSV,4,2,13,18,60,020,27,20,20,083,12,21,68,140,29,24,37,077,20*7E
$GPGSV,4,3,13,27,27,289,23,32,44,236,35,46,51,180,,48,38,234,34*74
$GPGSV,4,4,13,51,53,198,29*42
$GPGLL,3026.86411,N,09747.02324,W,032405.00,A,D*79
$GPTXT,01,01,01,NMEA unknown msg*58
$GPRMC,032406.00,A,3026.86407,N,09747.02302,W,0.328,,050816,,,D*63
$GPVTG,,T,,M,0.328,N,0.607,K,D*2E
$GPGGA,032406.00,3026.86407,N,09747.02302,W,2,10,1.01,305.8,M,-24.0,M,,0000*6E
$GPGSA,A,3,15,51,27,48,20,18,10,21,24,32,,,2.00,1.01,1.72*03
$GPGSV,4,1,13,08,07,318,21,10,47,318,23,14,24,227,07,15,18,046,13*7F
$GPGSV,4,2,13,18,60,020,27,20,20,083,12,21,68,140,29,24,37,077,21*7F
$GPGSV,4,3,13,27,27,289,23,32,44,236,35,46,51,180,,48,38,234,34*74
$GPGSV,4,4,13,51,53,198,29*42
$GPGLL,3026.86407,N,09747.02302,W,032406.00,A,D*79
$GPRMC,032407.00,A,3026.86413,N,09747.02307,W,0.301,,050816,,,D*69
$GPVTG,,T,,M,0.301,N,0.558,K,D*2C
$GPGGA,032407.00,3026.86413,N,09747.02307,W,2,10,1.01,306.0,M,-24.0,M,,0000*64
$GPGSA,A,3,15,51,27,48,20,18,10,21,24,32,,,2.00,1.01,1.72*03
$GPGSV,4,1,13,08,07,318,22,10,47,318,23,14,24,227,07,15,18,046,13*7C
$GPGSV,4,2,13,18,60,020,27,20,20,083,12,21,68,140,29,24,37,077,21*7F
$GPGSV,4,3,13,27,27,289,23,32,44,236,36,46,51,180,,48,38,234,34*77
$GPGSV,4,4,13,51,53,198,29*42
$GPGLL,3026.86413,N,09747.02307,W,032407.00,A,D*78
$GPRMC,032408.00,A,3026.86413,N,09747.02293,W,0.381,,050816,,,D*62
$GPVTG,,T,,M,0.381,N,0.705,K,D*2E
$GPGGA,032408.00,3026.86413,N,09747.02293,W,2,10,1.01,305.1,M,-24.0,M,,0000*65
$GPGSA,A,3,15,51,27,48,20,18,10,21,24,32,,,2.00,1.01,1.72*03
$GPGSV,4,1,13,08,07,318,21,10,47,318,23,14,24,227,07,15,18,046,13*7F
$GPGSV,4,2,13,18,60,020,27,20,20,083,12,21,68,140,29,24,37,077,22*7C
$GPGSV,4,3,13,27,27,289,24,32,44,236,36,46,51,180,,48,38,234,34*70
$GPGSV,4,4,13,51,53,198,29*42
$GPGLL,3026.86413,N,09747.02293,W,032408.00,A,D*7B
$GPRMC,032409.00,A,3026.86413,N,09747.02275,W,0.603,,050816,,,D*64
$GPVTG,,T,,M,0.603,N,1.116,K,D*24
$GPGGA,032409.00,3026.86413,N,09747.02275,W,2,10,1.01,304.4,M,-24.0,M,,0000*68
$GPGSA,A,3,15,51,27,48,20,18,10,21,24,32,,,2.00,1.01,1.72*03
$GPGSV,4,1,13,08,07,318,21,10,47,318,23,14,24,227,13,15,18,046,14*7D
$GPGSV,4,2,13,18,60,020,27,20,20,083,08,21,68,140,29,24,37,077,22*77
$GPGSV,4,3,13,27,27,289,24,32,44,236,36,46,51,180,,48,38,234,34*70
$GPGSV,4,4,13,51,53,198,29*42
$GPGLL,3026.86413,N,09747.02275,W,032409.00,A,D*72
$GPRMC,032410.00,A,3026.86400,N,09747.02247,W,1.006,,050816,,,D*6D
$GPVTG,,T,,M,1.006,N,1.864,K,D*2A
$GPGGA,032410.00,3026.86400,N,09747.02247,W,2,10,1.01,303.3,M,-24.0,M,,0000*63
$GPGSA,A,3,15,51,27,48,20,18,10,21,24,32,,,2.00,1.01,1.72*03
$GPGSV,4,1,13,08,07,318,21,10,47,318,23,14,24,227,13,15,18,046,14*7D
$GPGSV,4,2,13,18,60,020,27,20,20,083,08,21,68,140,29,24,37,077,22*77
$GPGSV,4,3,13,27,27,289,24,32,44,236,36,46,51,180,,48,38,234,34*70
$GPGSV,4,4,13,51,53,198,30*4A
$GPGLL,3026.86400,N,09747.02247,W,032410.00,A,D*79
$GPRMC,032411.00,A,3026.86389,N,09747.02226,W,0.501,,050816,,,D*6E
$GPVTG,,T,,M,0.501,N,0.928,K,D*21
$GPGGA,032411.00,3026.86389,N,09747.02226,W,2,09,1.10,303.6,M,-24.0,M,,0000*6E
$GPGSA,A,3,15,51,27,48,18,10,21,24,32,,,,2.26,1.10,1.97*0E
$GPGSV,4,1,13,08,07,318,21,10,47,318,23,14,24,227,13,15,18,046,14*7D
$GPGSV,4,2,13,18,60,020,27,20,20,083,08,21,68,140,29,24,37,077,23*76
$GPGSV,4,3,13,27,27,289,24,32,44,236,36,46,51,180,,48,38,234,34*70
$GPGSV,4,4,13,51,53,198,29*42
$GPGLL,3026.86389,N,09747.02226,W,032411.00,A,D*79
$GPRMC,032412.00,A,3026.86379,N,09747.02223,W,0.540,,050816,,,D*62
$GPVTG,,T,,M,0.540,N,0.999,K,D*2E
$GPGGA,032412.00,3026.86379,N,09747.02223,W,2,09,1.10,303.2,M,-24.0,M,,0000*63
$GPGSA,A,3,15,51,27,48,18,10,21,24,32,,,,2.26,1.10,1.97*0E
$GPGSV,4,1,13,08,07,318,20,10,47,318,23,14,24,227,13,15,18,046,14*7C
$GPGSV,4,2,13,18,60,020,27,20,20,083,07,21,68,140,29,24,37,077,22*78
$GPGSV,4,3,13,27,27,289,24,32,44,236,36,46,51,180,,48,38,234,34*70
$GPGSV,4,4,13,51,53,198,29*42
$GPGLL,3026.86379,N,09747.02223,W,032412.00,A,D*70
$GPRMC,032413.00,A,3026.86384,N,09747.02231,W,0.098,,050816,,,D*62
$GPVTG,,T,,M,0.098,N,0.181,K,D*2F
$GPGGA,032413.00,3026.86384,N,09747.02231,W,2,09,1.10,303.8,M,-24.0,M,,0000*69
$GPGSA,A,3,15,51,27,48,18,10,21,24,32,,,,2.26,1.10,1.97*0E
$GPGSV,4,1,13,08,07,318,21,10,47,318,22,14,24,227,13,15,18,046,14*7C
$GPGSV,4,2,13,18,60,020,27,20,20,083,07,21,68,140,29,24,37,077,23*79
$GPGSV,4,3,13,27,27,289,24,32,44,236,36,46,51,180,,48,38,234,34*70
$GPGSV,4,4,13,51,53,198,29*42
$GPGLL,3026.86384,N,09747.02231,W,032413.00,A,D*70
$GPRMC,032414.00,A,3026.86382,N,09747.02228,W,0.261,,050816,,,D*6F
$GPVTG,,T,,M,0.261,N,0.483,K,D*2C
$GPGGA,032414.00,3026.86382,N,09747.02228,W,2,09,1.10,303.7,M,-24.0,M,,0000*6F
$GPGSA,A,3,15,51,27,48,18,10,21,24,32,,,,2.26,1.10,1.97*0E
$GPGSV,4,1,13,08,07,318,20,10,47,318,22,14,24,227,13,15,18,046,14*7D
$GPGSV,4,2,13,18,60,020,27,20,20,083,07,21,68,140,29,24,37,077,22*78
$GPGSV,4,3,13,27,27,289,24,32,44,236,36,46,51,180,,48,38,234,34*70
$GPGSV,4,4,13,51,53,198,29*42
$GPGLL,3026.86382,N,09747.02228,W,032414.00,A,D*79
$GPRMC,032415.00,A,3026.86385,N,09747.02243,W,0.052,,050816,,,D*66
$GPVTG,,T,,M,0.052,N,0.097,K,D*2F
$GPGGA,032415.00,3026.86385,N,09747.02243,W,2,09,1.10,304.7,M,-24.0,M,,0000*63
$GPGSA,A,3,15,51,27,48,18,10,21,24,32,,,,2.26,1.10,1.97*0E
$GPGSV,4,1,13,08,07,318,21,10,47,318,22,14,24,227,14,15,18,046,16*79
$GPGSV,4,2,13,18,60,020,26,20,20,083,13,21,68,140,29,24,37,077,22*7C
$GPGSV,4,3,13,27,27,289,24,32,44,236,36,46,51,180,,48,38,234,34*70
$GPGSV,4,4,13,51,53,198,29*42
$GPGLL,3026.86385,N,09747.02243,W,032415.00,A,D*72
$GPRMC,032416.00,A,3026.86389,N,09747.02266,W,0.300,,050816,,,D*6A
$GPVTG,,T,,M,0.300,N,0.556,K,D*23
$GPGGA,032416.00,3026.86389,N,09747.02266,W,2,09,1.10,305.8,M,-24.0,M,,0000*65
$GPGSA,A,3,15,51,27,48,18,10,21,24,32,,,,2.26,1.10,1.97*0E
$GPGSV,4,1,13,08,07,318,20,10,47,318,22,14,24,227,14,15,18,046,16*78
$GPGSV,4,2,13,18,60,020,27,20,20,083,12,21,68,140,28,24,37,077,22*7D
$GPGSV,4,3,13,27,27,289,25,32,44,236,36,46,51,180,,48,38,234,34*71
$GPGSV,4,4,13,51,53,198,29*42
$GPGLL,3026.86389,N,09747.02266,W,032416.00,A,D*7A
$GPRMC,032417.00,A,3026.86394,N,09747.02288,W,0.125,,050816,,,D*62
$GPVTG,,T,,M,0.125,N,0.231,K,D*20
$GPGGA,032417.00,3026.86394,N,09747.02288,W,2,10,1.01,306.9,M,-24.0,M,,0000*62
$GPGSA,A,3,15,51,27,48,20,18,10,21,24,32,,,2.00,1.01,1.72*03
$GPGSV,4,1,13,08,07,318,20,10,47,318,22,14,24,227,14,15,18,046,16*78
$GPGSV,4,2,13,18,60,020,27,20,20,083,12,21,68,140,28,24,37,077,22*7D
$GPGSV,4,3,13,27,27,289,25,32,44,236,36,46,51,180,,48,38,234,34*71
$GPGSV,4,4,13,51,53,198,29*42
$GPGLL,3026.86394,N,09747.02288,W,032417.00,A,D*77
$GPRMC,032418.00,A,3026.86394,N,09747.02298,W,0.198,,050816,,,D*6A
$GPVTG,,T,,M,0.198,N,0.366,K,D*25
$GPGGA,032418.00,3026.86394,N,09747.02298,W,2,10,1.01,307.8,M,-24.0,M,,0000*6C
$GPGSA,A,3,15,51,27,48,20,18,10,21,24,32,,,2.00,1.01,1.72*03
$GPGSV,4,1,13,08,07,318,20,10,47,318,22,14,24,227,14,15,18,046,16*78
$GPGSV,4,2,13,18,60,020,27,20,20,083,13,21,68,140,29,24,37,077,22*7D
$GPGSV,4,3,13,27,27,289,25,32,44,236,36,46,51,180,,48,38,234,34*71
$GPGSV,4,4,13,51,53,198,29*42
$GPGLL,3026.86394,N,09747.02298,W,032418.00,A,D*79
$GPRMC,032419.00,A,3026.86400,N,09747.02319,W,0.173,,050816,,,D*6C
$GPVTG,,T,,M,0.173,N,0.321,K,D*23
$GPGGA,032419.00,3026.86400,N,09747.02319,W,2,10,1.01,309.4,M,-24.0,M,,0000*6D
$GPGSA,A,3,15,51,27,48,20,18,10,21,24,32,,,2.00,1.01,1.72*03
$GPGSV,4,1,13,08,07,318,21,10,47,318,22,14,24,227,14,15,18,046,16*79
$GPGSV,4,2,13,18,60,020,27,20,20,083,13,21,68,140,28,24,37,077,22*7C
$GPGSV,4,3,13,27,27,289,25,32,44,236,36,46,51,180,,48,38,234,34*71
$GPGSV,4,4,13,51,53,198,29*42
$GPGLL,3026.86400,N,09747.02319,W,032419.00,A,D*7A
$GPRMC,032420.00,A,3026.86401,N,09747.02334,W,0.163,,050816,,,D*69
$GPVTG,,T,,M,0.163,N,0.302,K,D*23
$GPGGA,032420.00,3026.86401,N,09747.02334,W,2,10,1.01,310.5,M,-24.0,M,,0000*60
$GPGSA,A,3,15,51,27,48,20,18,10,21,24,32,,,2.00,1.01,1.72*03
$GPGSV,4,1,13,08,07,318,20,10,47,318,22,14,24,227,14,15,18,046,16*78
$GPGSV,4,2,13,18,60,020,27,20,20,083,13,21,68,140,28,24,37,077,22*7C
$GPGSV,4,3,13,27,27,289,25,32,44,236,36,46,51,180,,48,38,234,34*71
$GPGSV,4,4,13,51,53,198,29*42
$GPGLL,3026.86401,N,09747.02334,W,032420.00,A,D*7E
$GPRMC,032421.00,A,3026.86403,N,09747.02336,W,0.281,,050816,,,D*67
$GPVTG,,T,,M,0.281,N,0.521,K,D*2B
$GPGGA,032421.00,3026.86403,N,09747.02336,W,2,10,1.10,310.7,M,-24.0,M,,0000*63
$GPGSA,A,3,15,51,27,48,20,18,10,21,24,32,,,2.26,1.10,1.97*0C
$GPGSV,4,1,13,08,07,318,20,10,47,318,22,14,24,227,11,15,18,046,13*78
$GPGSV,4,2,13,18,60,020,27,20,20,083,10,21,68,140,28,24,37,077,22*7F
$GPGSV,4,3,13,27,27,289,25,32,44,236,36,46,51,180,,48,38,234,34*71
$GPGSV,4,4,13,51,53,198,29*42
$GPGLL,3026.86403,N,09747.02336,W,032421.00,A,D*7F
$GPRMC,032422.00,A,3026.86400,N,09747.02337,W,0.070,,050816,,,D*6A
$GPVTG,,T,,M,0.070,N,0.130,K,D*23
$GPGGA,032422.00,3026.86400,N,09747.02337,W,2,10,1.10,311.1,M,-24.0,M,,0000*65
$GPGSA,A,3,15,51,27,48,20,18,10,21,24,32,,,2.26,1.10,1.97*0C
$GPGSV,4,1,13,08,07,318,20,10,47,318,22,14,24,227,11,15,18,046,13*78
$GPGSV,4,2,13,18,60,020,27,20,20,083,09,21,68,140,28,24,37,077,22*77
$GPGSV,4,3,13,27,27,289,25,32,44,236,36,46,51,180,,48,38,234,34*71
$GPGSV,4,4,13,51,53,198,29*42
$GPGLL,3026.86400,N,09747.02337,W,032422.00,A,D*7E
$GPRMC,032423.00,A,3026.86392,N,09747.02330,W,0.164,,050816,,,D*64
$GPVTG,,T,,M,0.164,N,0.304,K,D*22
$GPGGA,032423.00,3026.86392,N,09747.02330,W,2,10,1.10,311.0,M,-24.0,M,,0000*6E
$GPGSA,A,3,15,51,27,48,20,18,10,21,24,32,,,2.26,1.10,1.97*0C
$GPGSV,4,1,13,08,07,318,19,10,47,318,22,14,24,227,11,15,18,046,13*72
$GPGSV,4,2,13,18,60,020,27,20,20,083,09,21,68,140,28,24,37,077,22*77
$GPGSV,4,3,13,27,27,289,26,32,44,236,36,46,51,180,,48,38,234,34*72
$GPGSV,4,4,13,51,53,198,29*42
$GPGLL,3026.86392,N,09747.02330,W,032423.00,A,D*74
$GPRMC,032424.00,A,3026.86386,N,09747.02315,W,0.122,,050816,,,D*63
$GPVTG,,T,,M,0.122,N,0.226,K,D*21
$GPGGA,032424.00,3026.86386,N,09747.02315,W,2,10,1.10,310.7,M,-24.0,M,,0000*6D
$GPGSA,A,3,15,51,27,48,20,18,10,21,24,32,,,2.26,1.10,1.97*0C
$GPGSV,4,1,13,08,07,318,19,10,47,318,21,14,24,227,11,15,18,046,13*71
$GPGSV,4,2,13,18,60,020,27,20,20,083,09,21,68,140,28,24,37,077,21*74
$GPGSV,4,3,13,27,27,289,25,32,44,236,36,46,51,180,,48,38,234,34*71
$GPGSV,4,4,13,51,53,198,29*42
$GPGLL,3026.86386,N,09747.02315,W,032424.00,A,D*71
$GPTXT,01,01,01,NMEA unknown msg*58
$GPRMC,032425.00,A,3026.86389,N,09747.02325,W,0.211,,050816,,,D*6D
$GPVTG,,T,,M,0.211,N,0.390,K,D*2E
$GPGGA,032425.00,3026.86389,N,09747.02325,W,2,10,1.10,311.1,M,-24.0,M,,0000*67
$GPGSA,A,3,15,51,27,48,20,18,10,21,24,32,,,2.26,1.10,1.97*0C
$GPGSV,4,1,13,08,07,318,19,10,47,318,21,14,24,227,11,15,18,046,13*71
$GPGSV,4,2,13,18,60,020,27,20,20,083,09,21,68,140,28,24,37,077,21*74
$GPGSV,4,3,13,27,27,289,25,32,44,236,36,46,51,180,,48,38,234,34*71
$GPGSV,4,4,13,51,53,198,29*42
$GPGLL,3026.86389,N,09747.02325,W,032425.00,A,D*7C
$GPRMC,032426.00,A,3026.86383,N,09747.02318,W,0.651,,050816,,,D*6A
$GPVTG,,T,,M,0.651,N,1.206,K,D*21
$GPGGA,032426.00,3026.86383,N,09747.02318,W,2,10,1.10,310.5,M,-24.0,M,,0000*65
$GPGSA,A,3,15,51,27,48,20,18,10,21,24,32,,,2.26,1.10,1.97*0C
$GPGSV,4,1,13,08,07,318,18,10,47,318,22,14,24,227,11,15,18,046,13*73
$GPGSV,4,2,13,18,60,020,27,20,20,083,09,21,68,140,28,24,37,077,20*75
$GPGSV,4,3,13,27,27,289,25,32,44,236,36,46,51,180,,48,38,234,34*71
$GPGSV,4,4,13,51,53,198,29*42
$GPGLL,3026.86383,N,09747.02318,W,032426.00,A,D*7B
$GPRMC,032427.00,A,3026.86361,N,09747.02311,W,1.440,,050816,,,D*6D
$GPVTG,,T,,M,1.440,N,2.668,K,D*2D
$GPGGA,032427.00,3026.86361,N,09747.02311,W,2,10,1.10,310.7,M,-24.0,M,,0000*63
$GPGSA,A,3,15,51,27,48,20,18,10,21,24,32,,,2.26,1.10,1.97*0C
$GPGSV,4,1,13,08,07,318,19,10,47,318,21,14,24,227,11,15,18,046,11*73
$GPGSV,4,2,13,18,60,020,27,20,20,083,09,21,68,140,28,24,37,077,20*75
$GPGSV,4,3,13,27,27,289,25,32,44,236,36,46,51,180,,48,38,234,34*71
$GPGSV,4,4,13,51,53,198,29*42
$GPGLL,3026.86361,N,09747.02311,W,032427.00,A,D*7F
$GPRMC,032428.00,A,3026.86340,N,09747.02316,W,1.948,242.05,050816,,,D*7C
$GPVTG,242.05,T,,M,1.948,N,3.608,K,D*30
$GPGGA,032428.00,3026.86340,N,09747.02316,W,2,10,1.10,311.2,M,-24.0,M,,0000*6C
$GPGSA,A,3,15,51,27,48,20,18,10,21,24,32,,,2.26,1.10,1.97*0C
$GPGSV,4,1,13,08,07,318,19,10,47,318,21,14,24,227,11,15,18,046,11*73
$GPGSV,4,2,13,18,60,020,27,20,20,083,09,21,68,140,28,24,37,077,19*7F
$GPGSV,4,3,13,27,27,289,25,32,44,236,36,46,51,180,,48,38,234,34*71
$GPGSV,4,4,13,51,53,198,29*42
$GPGLL,3026.86340,N,09747.02316,W,032428.00,A,D*74
$GPRMC,032429.00,A,3026.86328,N,09747.02323,W,0.263,,050816,,,D*69
$GPVTG,,T,,M,0.263,N,0.487,K,D*2A
$GPGGA,032429.00,3026.86328,N,09747.02323,W,2,09,1.10,311.5,M,-24.0,M,,0000*6A
$GPGSA,A,3,15,51,27,48,18,10,21,24,32,,,,2.26,1.10,1.97*0E
$GPGSV,4,1,13,08,07,318,19,10,47,318,21,14,24,227,11,15,18,046,11*73
$GPGSV,4,2,13,18,60,020,27,20,20,083,09,21,68,140,28,24,37,077,19*7F
$GPGSV,4,3,13,27,27,289,25,32,44,236,36,46,51,180,,48,38,234,34*71
$GPGSV,4,4,13,51,53,198,29*42
$GPGLL,3026.86328,N,09747.02323,W,032429.00,A,D*7D
$GPRMC,032430.00,A,3026.86322,N,09747.02328,W,0.408,,050816,,,D*6B
$GPVTG,,T,,M,0.408,N,0.755,K,D*2D
$GPGGA,032430.00,3026.86322,N,09747.02328,W,2,09,1.10,312.1,M,-24.0,M,,0000*64
$GPGSA,A,3,15,51,27,48,18,10,21,24,32,,,,2.26,1.10,1.97*0E
$GPGSV,4,1,13,08,07,318,19,10,47,318,21,14,24,227,11,15,17,046,11*7C
$GPGSV,4,2,13,18,60,020,27,20,20,083,09,21,68,140,28,24,37,077,18*7E
$GPGSV,4,3,13,27,27,289,25,32,44,236,36,46,51,180,,48,38,234,34*71
$GPGSV,4,4,13,51,53,198,29*42
$GPGLL,3026.86322,N,09747.02328,W,032430.00,A,D*74
$GPRMC,032431.00,A,3026.86328,N,09747.02334,W,0.506,,050816,,,D*62
$GPVTG,,T,,M,0.506,N,0.938,K,D*27
$GPGGA,032431.00,3026.86328,N,09747.02334,W,2,09,1.10,312.4,M,-24.0,M,,0000*67
$GPGSA,A,3,15,51,27,48,18,10,21,24,32,,,,2.26,1.10,1.97*0E
$GPGSV,4,1,13,08,07,318,19,10,47,318,22,14,24,227,11,15,17,046,11*7F
$GPGSV,4,2,13,18,60,020,27,20,20,083,09,21,68,140,28,24,37,077,17*71
$GPGSV,4,3,13,27,27,289,25,32,44,236,36,46,51,180,,48,38,234,34*71
$GPGSV,4,4,13,51,53,198,29*42
$GPGLL,3026.86328,N,09747.02334,W,032431.00,A,D*72
$GPRMC,032432.00,A,3026.86344,N,09747.02350,W,0.789,,050816,,,D*6C
$GPVTG,,T,,M,0.789,N,1.462,K,D*21
$GPGGA,032432.00,3026.86344,N,09747.02350,W,2,09,1.10,313.5,M,-24.0,M,,0000*6C
$GPGSA,A,3,15,51,27,48,18,10,21,24,32,,,,2.26,1.10,1.97*0E
$GPGSV,4,1,13,08,07,318,19,10,47,318,21,14,24,227,11,15,17,046,11*7C
$GPGSV,4,2,13,18,60,020,27,20,20,083,09,21,68,140,28,24,37,077,16*70
$GPGSV,4,3,13,27,27,289,25,32,44,236,36,46,51,180,,48,38,234,34*71
$GPGSV,4,4,13,51,53,198,29*42
$GPGLL,3026.86344,N,09747.02350,W,032432.00,A,D*79
$GPTXT,01,01,01,NMEA unknown msg*58
$GPRMC,032433.00,A,3026.86357,N,09747.02360,W,0.445,,050816,,,D*6F
$GPVTG,,T,,M,0.445,N,0.824,K,D*2D
$GPGGA,032433.00,3026.86357,N,09747.02360,W,2,09,1.10,314.0,M,-24.0,M,,0000*6E
$GPGSA,A,3,15,51,27,48,18,10,21,24,32,,,,2.26,1.10,1.97*0E
$GPGSV,4,1,13,08,07,318,20,10,47,318,21,14,24,227,07,15,17,046,09*78
$GPGSV,4,2,13,18,60,020,27,20,20,083,08,21,68,140,28,24,37,077,15*72
$GPGSV,4,3,13,27,27,289,25,32,44,236,36,46,51,180,,48,38,234,34*71
$GPGSV,4,4,13,51,53,198,29*42
$GPGLL,3026.86357,N,09747.02360,W,032433.00,A,D*79
$GPRMC,032434.00,A,3026.86360,N,09747.02363,W,0.315,,050816,,,D*6D
$GPVTG,,T,,M,0.315,N,0.583,K,D*2F
$GPGGA,032434.00,3026.86360,N,09747.02363,W,2,09,1.10,314.2,M,-24.0,M,,0000*6C
$GPGSA,A,3,15,51,27,48,18,10,21,24,32,,,,2.26,1.10,1.97*0E
$GPGSV,4,1,13,08,07,318,20,10,47,318,21,14,24,227,07,15,17,046,09*78
$GPGSV,4,2,13,18,60,020,27,20,20,083,08,21,68,140,28,24,37,077,14*73
$GPGSV,4,3,13,27,27,289,26,32,44,236,36,46,51,180,,48,38,234,34*72
$GPGSV,4,4,13,51,53,198,29*42
$GPGLL,3026.86360,N,09747.02363,W,032434.00,A,D*79
$GPTXT,01,01,01,NMEA unknown msg*58
$GPRMC,032435.00,A,3026.86367,N,09747.02369,W,0.440,,050816,,,D*66
$GPVTG,,T,,M,0.440,N,0.816,K,D*29
$GPGGA,032435.00,3026.86367,N,09747.02369,W,2,09,1.10,314.5,M,-24.0,M,,0000*67
$GPGSA,A,3,15,51,27,48,18,10,21,24,32,,,,2.26,1.10,1.97*0E
$GPGSV,4,1,13,08,07,318,19,10,47,318,21,14,24,227,07,15,17,046,09*72
$GPGSV,4,2,13,18,60,020,27,20,20,083,08,21,68,140,28,24,37,077,13*74
$GPGSV,4,3,13,27,27,289,25,32,44,236,36,46,51,180,,48,38,234,34*71
$GPGSV,4,4,13,51,53,198,29*42
$GPGLL,3026.86367,N,09747.02369,W,032435.00,A,D*75
$GPRMC,032436.00,A,3026.86376,N,09747.02381,W,0.439,,050816,,,D*6D
$GPVTG,,T,,M,0.439,N,0.812,K,D*23
$GPGGA,032436.00,3026.86376,N,09747.02381,W,2,09,1.10,315.2,M,-24.0,M,,0000*64
$GPGSA,A,3,15,51,27,48,18,10,21,24,32,,,,2.26,1.10,1.97*0E
$GPGSV,4,1,13,08,07,318,19,10,47,318,21,14,24,227,07,15,17,046,09*72
$GPGSV,4,2,13,18,60,020,27,20,20,083,08,21,68,141,28,24,37,077,11*77
$GPGSV,4,3,13,27,27,289,26,32,44,236,36,46,51,180,,48,38,234,34*72
$GPGSV,4,4,13,51,53,198,29*42
$GPGLL,3026.86376,N,09747.02381,W,032436.00,A,D*70
$GPRMC,032437.00,A,3026.86377,N,09747.02378,W,0.402,,050816,,,D*63
$GPVTG,,T,,M,0.402,N,0.744,K,D*27
$GPGGA,032437.00,3026.86377,N,09747.02378,W,2,09,1.10,314.9,M,-24.0,M,,0000*68
$GPGSA,A,3,15,51,27,48,18,10,21,24,32,,,,2.26,1.10,1.97*0E
$GPGSV,4,1,13,08,07,318,19,10,47,318,21,14,24,227,07,15,17,046,09*72
$GPGSV,4,2,13,18,60,020,28,20,20,083,08,21,68,141,28,24,37,077,11*78
$GPGSV,4,3,13,27,27,289,25,32,44,236,36,46,51,180,,48,38,234,34*71
$GPGSV,4,4,13,51,53,198,29*42
$GPGLL,3026.86377,N,09747.02378,W,032437.00,A,D*76
$GPRMC,032438.00,A,3026.86377,N,09747.02371,W,0.139,,050816,,,D*68
$GPVTG,,T,,M,0.139,N,0.257,K,D*2D
$GPGGA,032438.00,3026.86377,N,09747.02371,W,2,08,1.19,314.6,M,-24.0,M,,0000*69
$GPGSA,A,3,15,51,27,48,18,10,21,32,,,,,2.33,1.19,2.00*08
$GPGSV,4,1,13,08,07,318,18,10,47,318,21,14,24,227,07,15,17,046,09*73
$GPGSV,4,2,13,18,60,020,28,20,20,083,,21,68,141,28,24,37,077,09*79
$GPGSV,4,3,13,27,27,289,25,32,44,236,36,46,51,180,,48,38,234,34*71
$GPGSV,4,4,13,51,53,198,29*42
$GPGLL,3026.86377,N,09747.02371,W,032438.00,A,D*70
$GPRMC,032439.00,A,3026.86373,N,09747.02353,W,0.083,,050816,,,D*6D
$GPVTG,,T,,M,0.083,N,0.153,K,D*2A
$GPGGA,032439.00,3026.86373,N,09747.02353,W,2,08,1.19,313.9,M,-24.0,M,,0000*64
$GPGSA,A,3,15,51,27,48,18,10,21,32,,,,,2.33,1.19,2.00*08
$GPGSV,4,1,13,08,07,318,18,10,47,318,20,14,24,227,13,15,17,046,14*7B
$GPGSV,4,2,13,18,60,020,28,20,20,083,,21,68,141,28,24,37,076,09*78
$GPGSV,4,3,13,27,27,289,25,32,44,236,36,46,51,180,,48,38,234,34*71
$GPGSV,4,4,13,51,53,198,29*42
$GPGLL,3026.86373,N,09747.02353,W,032439.00,A,D*75
$GPRMC,032440.00,A,3026.86370,N,09747.02331,W,0.244,,050816,,,D*6D
$GPVTG,,T,,M,0.244,N,0.453,K,D*26
$GPGGA,032440.00,3026.86370,N,09747.02331,W,2,08,1.19,312.8,M,-24.0,M,,0000*6D
$GPGSA,A,3,15,51,27,48,18,10,21,32,,,,,2.33,1.19,2.00*08
$GPGSV,4,1,13,08,07,318,19,10,47,318,20,14,24,227,13,15,17,046,14*7A
$GPGSV,4,2,13,18,60,020,28,20,20,083,,21,68,141,28,24,37,076,09*78
$GPGSV,4,3,13,27,27,289,25,32,44,236,36,46,51,180,,48,38,234,34*71
$GPGSV,4,4,13,51,53,198,29*42
$GPGLL,3026.86370,N,09747.02331,W,032440.00,A,D*7C
$GPRMC,032441.00,A,3026.86371,N,09747.02313,W,0.211,,050816,,,D*6D
$GPVTG,,T,,M,0.211,N,0.391,K,D*2F
$GPGGA,032441.00,3026.86371,N,09747.02313,W,2,08,1.19,312.2,M,-24.0,M,,0000*67
$GPGSA,A,3,15,51,27,48,18,10,21,32,,,,,2.33,1.19,2.00*08
$GPGSV,4,1,13,08,07,318,19,10,47,318,21,14,24,227,13,15,17,046,14*7B
$GPGSV,4,2,13,18,60,020,28,20,20,083,,21,68,141,28,24,37,076,09*78
$GPGSV,4,3,13,27,27,289,25,32,44,236,36,46,51,180,,48,38,234,34*71
$GPGSV,4,4,13,51,53,198,29*42
$GPGLL,3026.86371,N,09747.02313,W,032441.00,A,D*7C
$GPRMC,032442.00,A,3026.86375,N,09747.02303,W,0.226,,050816,,,D*6F
$GPVTG,,T,,M,0.226,N,0.419,K,D*2C
$GPGGA,032442.00,3026.86375,N,09747.02303,W,2,08,1.19,311.7,M,-24.0,M,,0000*67
$GPGSA,A,3,15,51,27,48,18,10,21,32,,,,,2.33,1.19,2.00*08
$GPGSV,4,1,13,08,07,318,18,10,47,318,21,14,24,227,13,15,17,046,14*7A
$GPGSV,4,2,13,18,60,020,28,20,20,083,,21,68,141,28,24,37,076,09*78
$GPGSV,4,3,13,27,27,289,25,32,44,236,36,46,51,180,,48,38,234,34*71
$GPGSV,4,4,13,51,53,198,29*42
$GPGLL,3026.86375,N,09747.02303,W,032442.00,A,D*7A
$GPRMC,032443.00,A,3026.86379,N,09747.02296,W,0.094,,050816,,,D*64
$GPVTG,,T,,M,0.094,N,0.174,K,D*29
$GPGGA,032443.00,3026.86379,N,09747.02296,W,2,08,1.19,311.1,M,-24.0,M,,0000*61
$GPGSA,A,3,15,51,27,48,18,10,21,32,,,,,2.33,1.19,2.00*08
$GPGSV,4,1,13,08,07,318,19,10,47,318,21,14,24,227,13,15,17,046,14*7B
$GPGSV,4,2,13,18,60,020,28,20,20,083,,21,68,141,28,24,37,076,09*78
$GPGSV,4,3,13,27,27,289,25,32,44,236,36,46,51,180,,48,38,234,34*71
$GPGSV,4,4,13,51,53,198,29*42
$GPGLL,3026.86379,N,09747.02296,W,032443.00,A,D*7A
$GPTXT,01,01,01,NMEA unknown msg*58
$GPRMC,032444.00,A,3026.86384,N,09747.02295,W,0.061,,050816,,,D*68
$GPVTG,,T,,M,0.061,N,0.114,K,D*25
$GPGGA,032444.00,3026.86384,N,09747.02295,W,2,08,1.19,311.2,M,-24.0,M,,0000*64
$GPGSA,A,3,15,51,27,48,18,10,21,32,,,,,2.33,1.19,2.00*08
$GPGSV,4,1,13,08,07,318,19,10,47,318,21,14,24,227,13,15,17,046,14*7B
$GPGSV,4,2,13,18,60,020,28,20,20,083,,21,68,141,28,24,37,076,09*78
$GPGSV,4,3,13,27,27,289,25,32,44,236,36,46,51,180,,48,38,234,34*71
$GPGSV,4,4,13,51,53,198,29*42
$GPGLL,3026.86384,N,09747.02295,W,032444.00,A,D*7C
$GPRMC,032445.00,A,3026.86383,N,09747.02293,W,0.225,,050816,,,D*6A
$GPVTG,,T,,M,0.225,N,0.416,K,D*20
$GPGGA,032445.00,3026.86383,N,09747.02293,W,2,09,1.10,311.2,M,-24.0,M,,0000*6C
$GPGSA,A,3,15,51,27,48,18,10,21,24,32,,,,2.26,1.10,1.97*0E
$GPGSV,4,1,13,08,07,318,19,10,47,318,20,14,24,227,10,15,17,046,11*7C
$GPGSV,4,2,13,18,60,020,28,20,20,083,,21,68,141,28,24,37,076,11*71
$GPGSV,4,3,13,27,27,289,25,32,44,236,36,46,51,180,,48,38,234,34*71
$GPGSV,4,4,13,51,53,198,29*42
$GPGLL,3026.86383,N,09747.02293,W,032445.00,A,D*7C
$GPRMC,032446.00,A,3026.86403,N,09747.02305,W,0.780,,050816,,,D*62
$GPVTG,,T,,M,0.780,N,1.444,K,D*2C
$GPGGA,032446.00,3026.86403,N,09747.02305,W,2,09,1.10,312.3,M,-24.0,M,,0000*6C
$GPGSA,A,3,15,51,27,48,18,10,21,24,32,,,,2.26,1.10,1.97*0E
$GPGSV,4,1,13,08,07,318,19,10,47,318,20,14,24,227,10,15,17,046,11*7C
$GPGSV,4,2,13,18,60,020,28,20,20,083,,21,68,141,28,24,37,076,11*71
$GPTXT,01,01,01,NMEA unknown msg*58
$GPGSV,4,3,13,27,27,289,25,32,44,236,36,46,51,180,,48,38,234,34*71
$GPGSV,4,4,13,51,53,198,29*42
$GPGLL,3026.86403,N,09747.02305,W,032446.00,A,D*7E
$GPRMC,032447.00,A,3026.86398,N,09747.02321,W,0.423,,050816,,,D*6A
$GPVTG,,T,,M,0.423,N,0.784,K,D*28
$GPGGA,032447.00,3026.86398,N,09747.02321,W,2,09,1.10,312.8,M,-24.0,M,,0000*65
$GPGSA,A,3,15,51,27,48,18,10,21,24,32,,,,2.25,1.10,1.97*0D
$GPGSV,4,1,13,08,07,318,18,10,47,318,20,14,24,227,10,15,17,046,11*7D
$GPGSV,4,2,13,18,60,020,29,20,20,083,,21,68,141,28,24,37,076,11*70
$GPGSV,4,3,13,27,27,289,26,32,44,236,36,46,51,180,,48,38,234,34*72
$GPGSV,4,4,13,51,53,198,29*42
$GPGLL,3026.86398,N,09747.02321,W,032447.00,A,D*7C
$GPRMC,032448.00,A,3026.86401,N,09747.02335,W,0.445,,050816,,,D*67
$GPVTG,,T,,M,0.445,N,0.824,K,D*2D
$GPGGA,032448.00,3026.86401,N,09747.02335,W,2,09,1.10,313.3,M,-24.0,M,,0000*62
$GPGSA,A,3,15,51,27,48,18,10,21,24,32,,,,2.25,1.10,1.97*0D
$GPGSV,4,1,13,08,07,318,18,10,47,318,20,14,24,227,10,15,17,046,11*7D
$GPGSV,4,2,13,18,60,020,29,20,20,083,,21,68,141,28,24,37,076,11*70
$GPGSV,4,3,13,27,27,289,26,32,44,236,36,46,51,180,,48,38,234,34*72
$GPGSV,4,4,13,51,53,198,29*42
$GPGLL,3026.86401,N,09747.02335,W,032448.00,A,D*71
$GPRMC,032449.00,A,3026.86402,N,09747.02341,W,0.400,,050816,,,D*67
$GPVTG,,T,,M,0.400,N,0.740,K,D*21
$GPGGA,032449.00,3026.86402,N,09747.02341,W,2,09,1.10,313.6,M,-24.0,M,,0000*66
$GPGSA,A,3,15,51,27,48,18,10,21,24,32,,,,2.25,1.10,1.97*0D
$GPGSV,4,1,13,08,07,318,18,10,47,318,20,14,24,227,10,15,17,046,11*7D
$GPGSV,4,2,13,18,60,020,29,20,20,083,,21,68,141,28,24,37,076,11*70
$GPGSV,4,3,13,27,27,289,26,32,44,236,36,46,51,180,,48,38,234,34*72
$GPGSV,4,4,13,51,53,198,29*42
$GPGLL,3026.86402,N,09747.02341,W,032449.00,A,D*70
$GPRMC,032450.00,A,3026.86404,N,09747.02346,W,0.330,,050816,,,D*6A
$GPVTG,,T,,M,0.330,N,0.612,K,D*23
$GPGGA,032450.00,3026.86404,N,09747.02346,W,2,09,1.10,313.9,M,-24.0,M,,0000*60
$GPGSA,A,3,15,51,27,48,18,10,21,24,32,,,,2.25,1.10,1.97*0D
$GPGSV,4,1,13,08,07,318,17,10,47,318,20,14,24,227,10,15,17,046,11*72
$GPGSV,4,2,13,18,60,020,29,20,20,083,,21,68,141,28,24,37,076,11*70
$GPGSV,4,3,13,27,27,289,26,32,44,236,36,46,51,180,,48,38,234,34*72
$GPGSV,4,4,13,51,53,198,29*42
$GPGLL,3026.86404,N,09747.02346,W,032450.00,A,D*79
$GPRMC,032451.00,A,3026.86409,N,09747.02362,W,0.323,,050816,,,D*62
$GPVTG,,T,,M,0.323,N,0.598,K,D*20
$GPGGA,032451.00,3026.86409,N,09747.02362,W,2,09,1.10,314.6,M,-24.0,M,,0000*62
$GPGSA,A,3,15,51,27,48,18,10,21,24,32,,,,2.25,1.10,1.97*0D
$GPGSV,4,1,13,08,07,318,17,10,47,318,20,14,24,227,14,15,17,046,11*76
$GPGSV,4,2,13,18,60,020,29,20,20,083,,21,68,141,28,24,37,076,16*77
$GPGSV,4,3,13,27,27,289,25,32,44,236,36,46,51,180,,48,38,234,34*71
$GPGSV,4,4,13,51,53,198,29*42
$GPGLL,3026.86409,N,09747.02362,W,032451.00,A,D*73
$GPRMC,032452.00,A,3026.86406,N,09747.02362,W,0.170,,050816,,,D*6A
$GPVTG,,T,,M,0.170,N,0.314,K,D*26
$GPGGA,032452.00,3026.86406,N,09747.02362,W,2,09,1.10,314.3,M,-24.0,M,,0000*6B
$GPGSA,A,3,15,51,27,48,18,10,21,24,32,,,,2.25,1.10,1.97*0D
$GPGSV,4,1,13,08,07,318,17,10,47,318,20,14,24,227,14,15,17,046,11*76
$GPGSV,4,2,13,18,60,020,29,20,20,083,,21,68,141,28,24,37,076,18*79
$GPGSV,4,3,13,27,27,289,26,32,44,236,36,46,51,180,,48,38,234,34*72
$GPGSV,4,4,13,51,53,198,29*42
$GPGLL,3026.86406,N,09747.02362,W,032452.00,A,D*7F
$GPRMC,032453.00,A,3026.86415,N,09747.02387,W,0.441,,050816,,,D*65
$GPVTG,,T,,M,0.441,N,0.817,K,D*29
$GPGGA,032453.00,3026.86415,N,09747.02387,W,2,09,1.10,315.3,M,-24.0,M,,0000*62
$GPGSA,A,3,15,51,27,48,18,10,21,24,32,,,,2.25,1.10,1.97*0D
$GPGSV,4,1,13,08,07,318,17,10,47,318,20,14,24,227,14,15,17,046,11*76
$GPGSV,4,2,13,18,60,020,29,20,20,083,,21,68,141,28,24,37,076,18*79
$GPGSV,4,3,13,27,27,289,26,32,44,236,36,46,51,180,,48,38,234,34*72
$GPGSV,4,4,13,51,53,198,29*42
$GPGLL,3026.86415,N,09747.02387,W,032453.00,A,D*77
$GPRMC,032454.00,A,3026.86418,N,09747.02402,W,0.275,,050816,,,D*64
$GPVTG,,T,,M,0.275,N,0.509,K,D*2A
$GPGGA,032454.00,3026.86418,N,09747.02402,W,2,09,1.10,316.2,M,-24.0,M,,0000*60
$GPGSA,A,3,15,51,27,48,18,10,21,24,32,,,,2.25,1.10,1.97*0D
$GPGSV,4,1,13,08,07,318,17,10,47,318,21,14,24,227,14,15,17,046,11*77
$GPGSV,4,2,13,18,60,020,29,20,20,083,,21,68,141,28,24,37,076,19*78
$GPGSV,4,3,13,27,27,289,26,32,44,236,36,46,51,180,,48,38,234,34*72
$GPGSV,4,4,13,51,53,198,29*42
$GPGLL,3026.86418,N,09747.02402,W,032454.00,A,D*77
$GPTXT,01,01,01,NMEA unknown msg*58
$GPRMC,032455.00,A,3026.86414,N,09747.02398,W,0.394,,050816,,,D*63
$GPVTG,,T,,M,0.394,N,0.730,K,D*2C
$GPGGA,032455.00,3026.86414,N,09747.02398,W,2,09,1.10,316.3,M,-24.0,M,,0000*68
$GPGSA,A,3,15,51,27,48,18,10,21,24,32,,,,2.25,1.10,1.97*0D
$GPGSV,4,1,13,08,07,318,17,10,47,318,20,14,24,227,14,15,17,046,11*76
$GPGSV,4,2,13,18,60,020,29,20,20,083,,21,68,141,28,24,37,076,18*79
$GPGSV,4,3,13,27,27,289,26,32,44,236,36,46,51,180,,48,38,234,34*72
$GPGSV,4,4,13,51,53,198,29*42
$GPGLL,3026.86414,N,09747.02398,W,032455.00,A,D*7E
$GPTXT,01,01,01,NMEA unknown msg*58
$GPRMC,032456.00,A,3026.86412,N,09747.02411,W,0.146,,050816,,,D*6D
$GPVTG,,T,,M,0.146,N,0.270,K,D*20
$GPGGA,032456.00,3026.86412,N,09747.02411,W,2,09,1.10,316.7,M,-24.0,M,,0000*6F
$GPGSA,A,3,15,51,27,48,18,10,21,24,32,,,,2.25,1.10,1.97*0D
$GPGSV,4,1,13,08,07,318,17,10,47,318,21,14,24,227,14,15,17,046,11*77
$GPGSV,4,2,13,18,60,020,29,20,20,083,,21,68,141,28,24,37,076,18*79
$GPGSV,4,3,13,27,27,289,26,32,44,236,36,46,51,180,,48,38,234,34*72
$GPGSV,4,4,13,51,53,198,29*42
$GPGLL,3026.86412,N,09747.02411,W,032456.00,A,D*7D
$GPRMC,032457.00,A,3026.86407,N,09747.02411,W,0.200,,050816,,,D*69
$GPVTG,,T,,M,0.200,N,0.371,K,D*21
$GPGGA,032457.00,3026.86407,N,09747.02411,W,2,09,1.10,316.6,M,-24.0,M,,0000*6B
$GPGSA,A,3,15,51,27,48,18,10,21,24,32,,,,2.25,1.10,1.97*0D
$GPGSV,4,1,13,08,07,318,16,10,47,318,21,14,24,227,10,15,17,046,11*72
$GPGSV,4,2,13,18,60,020,29,20,20,083,,21,68,141,27,24,37,076,19*77
$GPGSV,4,3,13,27,27,289,26,32,44,236,36,46,51,180,,48,38,234,34*72
$GPGSV,4,4,13,51,53,198,29*42
$GPGLL,3026.86407,N,09747.02411,W,032457.00,A,D*78
$GPRMC,032458.00,A,3026.86409,N,09747.02407,W,0.287,,050816,,,D*60
$GPVTG,,T,,M,0.287,N,0.532,K,D*2F
$GPGGA,032458.00,3026.86409,N,09747.02407,W,2,09,1.10,316.2,M,-24.0,M,,0000*69
$GPGSA,A,3,15,51,27,48,18,10,21,24,32,,,,2.25,1.10,1.97*0D
$GPGSV,4,1,13,08,07,318,16,10,47,318,21,14,24,227,10,15,17,046,11*72
$GPGSV,4,2,13,18,60,020,29,20,20,083,,21,68,141,27,24,37,076,19*77
$GPGSV,4,3,13,27,27,289,26,32,44,236,36,46,51,180,,48,38,234,34*72
$GPGSV,4,4,13,51,53,198,29*42
$GPGLL,3026.86409,N,09747.02407,W,032458.00,A,D*7E
$GPRMC,032459.00,A,3026.86408,N,09747.02401,W,0.412,,050816,,,D*6C
$GPVTG,,T,,M,0.412,N,0.764,K,D*24
$GPGGA,032459.00,3026.86408,N,09747.02401,W,2,09,1.10,316.2,M,-24.0,M,,0000*6F
$GPGSA,A,3,15,51,27,48,18,10,21,24,32,,,,2.25,1.10,1.97*0D
$GPGSV,4,1,13,08,07,318,16,10,47,318,21,14,24,227,10,15,17,046,11*72
$GPGSV,4,2,13,18,60,020,29,20,20,083,,21,68,141,27,24,37,076,19*77
$GPGSV,4,3,13,27,27,289,26,32,44,236,36,46,51,180,,48,38,234,34*72
$GPGSV,4,4,13,51,53,198,29*42
$GPGLL,3026.86408,N,09747.02401,W,032459.00,A,D*78
$GPRMC,032500.00,A,3026.86406,N,09747.02410,W,0.216,,050816,,,D*6D
$GPVTG,,T,,M,0.216,N,0.401,K,D*26
$GPGGA,032500.00,3026.86406,N,09747.02410,W,2,09,1.10,316.6,M,-24.0,M,,0000*68
$GPGSA,A,3,15,51,27,48,18,10,21,24,32,,,,2.25,1.10,1.97*0D
$GPGSV,4,1,13,08,07,318,17,10,47,318,20,14,24,227,10,15,17,046,11*72
$GPGSV,4,2,13,18,60,020,29,20,20,083,,21,68,141,27,24,37,076,18*76
$GPGSV,4,3,13,27,27,289,26,32,44,236,36,46,51,180,,48,38,234,34*72
$GPGSV,4,4,13,51,53,198,29*42
$GPGLL,3026.86406,N,09747.02410,W,032500.00,A,D*7B
$GPRMC,032501.00,A,3026.86407,N,09747.02419,W,0.176,,050816,,,D*61
$GPVTG,,T,,M,0.176,N,0.325,K,D*22
$GPGGA,032501.00,3026.86407,N,09747.02419,W,2,09,1.10,316.7,M,-24.0,M,,0000*60
$GPGSA,A,3,15,51,27,48,18,10,21,24,32,,,,2.25,1.10,1.97*0D
$GPGSV,4,1,13,08,07,318,17,10,47,318,21,14,24,227,10,15,17,046,11*73
$GPGSV,4,2,13,18,60,020,29,20,20,083,,21,68,141,27,24,37,076,17*79
$GPGSV,4,3,13,27,27,289,25,32,44,236,36,46,51,180,,48,38,234,34*71
$GPGSV,4,4,13,51,53,198,29*42
$GPGLL,3026.86407,N,09747.02419,W,032501.00,A,D*72
$GPTXT,01,01,01,NMEA unknown msg*58
$GPRMC,032502.00,A,3026.86406,N,09747.02425,W,0.058,,050816,,,D*61
$GPVTG,,T,,M,0.058,N,0.107,K,D*2D
$GPGGA,032502.00,3026.86406,N,09747.02425,W,2,09,1.19,317.0,M,-24.0,M,,0000*62
$GPGSA,A,3,15,51,27,48,18,10,21,24,32,,,,3.02,1.19,2.77*0D
$GPGSV,4,1,13,08,07,318,16,10,47,318,21,14,24,227,10,15,17,046,11*72
$GPGSV,4,2,13,18,60,020,29,20,20,083,,21,68,141,27,24,37,076,16*78
$GPGSV,4,3,13,27,27,289,26,32,44,236,36,46,51,180,,48,38,234,34*72
$GPGSV,4,4,13,51,53,198,29*42
$GPGLL,3026.86406,N,09747.02425,W,032502.00,A,D*7F
$GPRMC,032503.00,A,3026.86416,N,09747.02446,W,0.207,,050816,,,D*6C
$GPVTG,,T,,M,0.207,N,0.383,K,D*2B
$GPGGA,032503.00,3026.86416,N,09747.02446,W,2,09,1.19,317.8,M,-24.0,M,,0000*6F
$GPGSA,A,3,15,51,27,48,18,10,21,24,32,,,,3.02,1.19,2.77*0D
$GPGSV,4,1,13,08,07,318,17,10,47,318,21,14,24,227,09,15,17,046,10*7A
$GPGSV,4,2,13,18,60,020,29,20,20,083,07,21,68,141,27,24,37,076,15*7C
$GPGSV,4,3,13,27,27,289,25,32,44,236,36,46,51,180,,48,38,234,34*71
$GPGSV,4,4,13,51,53,198,29*42
$GPGLL,3026.86416,N,09747.02446,W,032503.00,A,D*7A
$GPRMC,032504.00,A,3026.86419,N,09747.02455,W,0.109,,050816,,,D*6B
$GPVTG,,T,,M,0.109,N,0.202,K,D*2E
$GPGGA,032504.00,3026.86419,N,09747.02455,W,2,09,1.19,318.3,M,-24.0,M,,0000*61
$GPGSA,A,3,15,51,27,48,18,10,21,24,32,,,,3.02,1.19,2.77*0D
$GPGSV,4,1,13,08,07,318,16,10,47,318,21,14,24,227,09,15,17,046,10*7B
$GPGSV,4,2,13,18,60,020,29,20,20,083,07,21,68,141,27,24,37,076,15*7C
$GPGSV,4,3,13,27,27,289,25,32,44,236,35,46,51,180,,48,38,234,34*72
$GPGSV,4,4,13,51,53,198,29*42
$GPGLL,3026.86419,N,09747.02455,W,032504.00,A,D*70
$GPRMC,032505.00,A,3026.86423,N,09747.02450,W,0.082,,050816,,,D*64
$GPVTG,,T,,M,0.082,N,0.153,K,D*2B
$GPGGA,032505.00,3026.86423,N,09747.02450,W,2,09,1.19,318.1,M,-24.0,M,,0000*6E
$GPGSA,A,3,15,51,27,48,18,10,21,24,32,,,,3.02,1.19,2.77*0D
$GPGSV,4,1,13,08,07,318,16,10,47,318,20,14,24,227,09,15,17,046,10*7A
$GPGSV,4,2,13,18,60,020,29,20,20,083,08,21,68,141,27,24,37,076,14*72
$GPGSV,4,3,13,27,27,289,25,32,44,236,35,46,51,180,,48,38,234,34*72
$GPGSV,4,4,13,51,53,198,29*42
$GPGLL,3026.86423,N,09747.02450,W,032505.00,A,D*7D
$GPRMC,032506.00,A,3026.86417,N,09747.02448,W,0.186,,050816,,,D*6C
$GPVTG,,T,,M,0.186,N,0.345,K,D*2B
$GPGGA,032506.00,3026.86417,N,09747.02448,W,2,09,1.19,318.3,M,-24.0,M,,0000*61
$GPGSA,A,3,15,51,27,48,18,10,21,24,32,,,,3.02,1.19,2.77*0D
$GPGSV,4,1,13,08,07,318,15,10,47,318,20,14,24,227,09,15,17,046,10*79
$GPGSV,4,2,13,18,60,020,29,20,20,083,08,21,68,141,27,24,37,076,12*74
$GPGSV,4,3,13,27,27,289,25,32,44,236,35,46,51,180,,48,38,234,34*72
$GPGSV,4,4,13,51,53,198,29*42
$GPGLL,3026.86417,N,09747.02448,W,032506.00,A,D*70
$GPRMC,032507.00,A,3026.86429,N,09747.02465,W,0.721,,050816,,,D*64
$GPVTG,,T,,M,0.721,N,1.335,K,D*26
$GPGGA,032507.00,3026.86429,N,09747.02465,W,2,09,1.19,319.0,M,-24.0,M,,0000*60
$GPGSA,A,3,15,51,27,48,18,10,21,24,32,,,,3.02,1.19,2.77*0D
$GPGSV,4,1,13,08,07,318,13,10,47,318,20,14,24,227,09,15,17,046,10*7F
$GPGSV,4,2,13,18,60,020,29,20,20,083,08,21,68,141,27,24,37,076,11*77
$GPGSV,4,3,13,27,27,289,25,32,44,236,35,46,51,180,,48,38,234,34*72
$GPGSV,4,4,13,51,53,198,29*42
$GPGLL,3026.86429,N,09747.02465,W,032507.00,A,D*73
$GPRMC,032508.00,A,3026.86427,N,09747.02473,W,0.446,,050816,,,D*60
$GPVTG,,T,,M,0.446,N,0.825,K,D*2F
$GPGGA,032508.00,3026.86427,N,09747.02473,W,2,09,1.19,319.6,M,-24.0,M,,0000*60
$GPGSA,A,3,15,51,27,48,18,10,21,24,32,,,,3.02,1.19,2.77*0D
$GPGSV,4,1,13,08,07,318,13,10,48,318,20,14,24,227,,15,17,046,10*79
$GPGSV,4,2,13,18,60,020,29,20,20,083,08,21,68,141,27,24,37,076,10*76
$GPGSV,4,3,13,27,27,289,25,32,44,236,35,46,51,180,,48,38,234,34*72
$GPGSV,4,4,13,51,53,198,29*42
$GPGLL,3026.86427,N,09747.02473,W,032508.00,A,D*75
$GPTXT,01,01,01,NMEA unknown msg*58
$GPRMC,032509.00,A,3026.86433,N,09747.02508,W,0.247,,050816,,,D*6E
$GPVTG,,T,,M,0.247,N,0.458,K,D*2E
$GPGGA,032509.00,3026.86433,N,09747.02508,W,2,10,1.05,321.1,M,-24.0,M,,0000*60
$GPGSA,A,3,15,51,27,48,20,18,10,21,24,32,,,2.16,1.05,1.88*05
$GPGSV,4,1,13,08,07,318,14,10,48,318,21,14,24,227,,15,17,046,09*77
$GPGSV,4,2,13,18,60,020,29,20,20,083,10,21,68,141,27,24,37,076,10*7F
$GPGSV,4,3,13,27,27,289,25,32,44,236,35,46,51,180,,48,38,234,34*72
$GPGSV,4,4,13,51,53,198,29*42
$GPGLL,3026.86433,N,09747.02508,W,032509.00,A,D*7C
$GPRMC,032510.00,A,3026.86441,N,09747.02533,W,0.291,,050816,,,D*60
$GPVTG,,T,,M,0.291,N,0.538,K,D*22
$GPGGA,032510.00,3026.86441,N,09747.02533,W,2,09,1.04,322.1,M,-24.0,M,,0000*6F
$GPGSA,A,3,15,51,27,48,20,18,10,21,32,,,,2.01,1.04,1.72*01
$GPGSV,4,1,13,08,07,318,13,10,48,318,21,14,24,227,,15,17,046,09*70
$GPGSV,4,2,13,18,60,020,29,20,20,083,10,21,68,141,27,24,37,076,08*76
$GPGSV,4,3,13,27,27,289,25,32,44,236,35,46,51,180,,48,38,234,34*72
$GPGSV,4,4,13,51,53,198,29*42
$GPGLL,3026.86441,N,09747.02533,W,032510.00,A,D*79
$GPRMC,032511.00,A,3026.86446,N,09747.02539,W,0.272,,050816,,,D*61
$GPVTG,,T,,M,0.272,N,0.504,K,D*20
$GPGGA,032511.00,3026.86446,N,09747.02539,W,2,09,1.04,322.2,M,-24.0,M,,0000*60
$GPGSA,A,3,15,51,27,48,20,18,10,21,32,,,,2.01,1.04,1.72*01
$GPGSV,4,1,13,08,07,318,13,10,48,318,21,14,24,227,,15,17,046,09*70
$GPGSV,4,2,13,18,60,020,29,20,20,083,10,21,68,141,27,24,37,076,08*76
$GPGSV,4,3,13,27,27,289,25,32,44,236,35,46,51,180,,48,38,234,34*72
$GPGSV,4,4,13,51,53,198,29*42
$GPGLL,3026.86446,N,09747.02539,W,032511.00,A,D*75
$GPTXT,01,01,01,NMEA unknown msg*58
$GPRMC,032512.00,A,3026.86451,N,09747.02543,W,0.252,,050816,,,D*6B
$GPVTG,,T,,M,0.252,N,0.467,K,D*26
$GPGGA,032512.00,3026.86451,N,09747.02543,W,2,09,1.04,322.4,M,-24.0,M,,0000*6E
$GPGSA,A,3,15,51,27,48,20,18,10,21,32,,,,2.01,1.04,1.72*01
$GPGSV,4,1,13,08,07,318,10,10,48,318,21,14,25,228,,15,17,046,09*7D
$GPGSV,4,2,13,18,60,020,29,20,20,083,10,21,68,141,27,24,37,076,07*79
$GPGSV,4,3,13,27,27,289,25,32,44,236,35,46,51,180,,48,38,234,34*72
$GPGSV,4,4,13,51,53,198,29*42
$GPGLL,3026.86451,N,09747.02543,W,032512.00,A,D*7D
$GPRMC,032513.00,A,3026.86453,N,09747.02544,W,0.254,,050816,,,D*69
$GPVTG,,T,,M,0.254,N,0.470,K,D*26
$GPGGA,032513.00,3026.86453,N,09747.02544,W,2,09,1.04,322.5,M,-24.0,M,,0000*6B
$GPGSA,A,3,15,51,27,48,20,18,10,21,32,,,,2.01,1.04,1.72*01
$GPGSV,4,1,13,08,07,318,10,10,48,318,21,14,25,228,,15,17,046,09*7D
$GPGSV,4,2,13,18,60,020,29,20,20,083,10,21,68,141,27,24,37,076,07*79
$GPGSV,4,3,13,27,27,289,25,32,44,236,35,46,51,180,,48,38,234,34*72
$GPGSV,4,4,13,51,53,198,29*42
$GPGLL,3026.86453,N,09747.02544,W,032513.00,A,D*79
$GPTXT,01,01,01,NMEA unknown msg*58
$GPRMC,032514.00,A,3026.86455,N,09747.02543,W,0.260,,050816,,,D*68
$GPVTG,,T,,M,0.260,N,0.482,K,D*2C
$GPGGA,032514.00,3026.86455,N,09747.02543,W,2,09,1.04,322.5,M,-24.0,M,,0000*6D
$GPGSA,A,3,15,51,27,48,20,18,10,21,32,,,,2.01,1.04,1.72*01
$GPGSV,4,1,13,08,07,318,09,10,48,318,21,14,25,228,,15,17,046,09*75
$GPGSV,4,2,13,18,60,020,29,20,20,083,10,21,68,141,27,24,37,076,07*79
$GPGSV,4,3,13,27,27,289,25,32,44,236,35,46,51,180,,48,38,234,34*72
$GPGSV,4,4,13,51,53,198,29*42
$GPGLL,3026.86455,N,09747.02543,W,032514.00,A,D*7F
$GPRMC,032515.00,A,3026.86454,N,09747.02517,W,0.138,,050816,,,D*67
$GPVTG,,T,,M,0.138,N,0.256,K,D*2D
$GPGGA,032515.00,3026.86454,N,09747.02517,W,2,10,1.01,321.5,M,-24.0,M,,0000*62
$GPGSA,A,3,15,51,27,48,20,18,10,21,24,32,,,1.99,1.01,1.72*00
$GPGSV,4,1,13,08,07,318,10,10,48,318,21,14,25,228,,15,17,046,13*76
$GPGSV,4,2,13,18,60,020,29,20,20,083,10,21,68,141,27,24,37,076,10*7F
$GPGSV,4,3,13,27,27,289,25,32,44,236,35,46,51,180,,48,38,234,34*72
$GPGSV,4,4,13,51,53,198,29*42
$GPGLL,3026.86454,N,09747.02517,W,032515.00,A,D*7E
$GPRMC,032516.00,A,3026.86452,N,09747.02489,W,0.122,,050816,,,D*6F
$GPVTG,,T,,M,0.122,N,0.226,K,D*21
$GPGGA,032516.00,3026.86452,N,09747.02489,W,2,10,1.01,320.5,M,-24.0,M,,0000*60
$GPGSA,A,3,15,51,27,48,20,18,10,21,24,32,,,1.99,1.01,1.72*00
$GPGSV,4,1,13,08,07,318,10,10,48,318,21,14,25,228,,15,17,046,13*76
$GPGSV,4,2,13,18,60,021,29,20,20,083,10,21,68,141,27,24,37,076,10*7E
$GPGSV,4,3,13,27,27,289,24,32,44,236,35,46,51,180,,48,38,234,34*73
$GPGSV,4,4,13,51,53,198,29*42
$GPGLL,3026.86452,N,09747.02489,W,032516.00,A,D*7D
$GPRMC,032517.00,A,3026.86448,N,09747.02464,W,0.113,,050816,,,D*64
$GPVTG,,T,,M,0.113,N,0.209,K,D*2E
$GPGGA,032517.00,3026.86448,N,09747.02464,W,2,10,1.01,319.4,M,-24.0,M,,0000*62
$GPGSA,A,3,15,51,27,48,20,18,10,21,24,32,,,1.99,1.01,1.72*00
$GPGSV,4,1,13,08,07,318,11,10,48,318,21,14,25,228,,15,17,046,13*77
$GPGSV,4,2,13,18,60,021,29,20,20,083,10,21,68,141,27,24,37,076,10*7E
$GPGSV,4,3,13,27,27,289,25,32,44,236,35,46,51,180,,48,38,234,34*72
$GPGSV,4,4,13,51,53,198,29*42
$GPGLL,3026.86448,N,09747.02464,W,032517.00,A,D*74
$GPRMC,032518.00,A,3026.86442,N,09747.02434,W,0.021,,050816,,,D*64
$GPVTG,,T,,M,0.021,N,0.039,K,D*2F
$GPGGA,032518.00,3026.86442,N,09747.02434,W,2,10,1.01,318.2,M,-24.0,M,,0000*65
$GPGSA,A,3,15,51,27,48,20,18,10,21,24,32,,,1.99,1.01,1.72*00
$GPGSV,4,1,13,08,07,318,11,10,48,318,22,14,25,228,,15,17,046,13*74
$GPGSV,4,2,13,18,60,021,29,20,19,083,10,21,68,141,27,24,37,076,10*74
$GPGSV,4,3,13,27,27,289,24,32,44,236,35,46,51,180,,48,38,234,34*73
$GPGSV,4,4,13,51,53,198,29*42
$GPGLL,3026.86442,N,09747.02434,W,032518.00,A,D*74
$GPRMC,032519.00,A,3026.86440,N,09747.02410,W,0.093,,050816,,,D*68
$GPVTG,,T,,M,0.093,N,0.172,K,D*28
$GPGGA,032519.00,3026.86440,N,09747.02410,W,2,10,1.01,317.2,M,-24.0,M,,0000*6F
$GPGSA,A,3,15,51,27,48,20,18,10,21,24,32,,,1.99,1.01,1.72*00
$GPGSV,4,1,13,08,07,318,11,10,48,318,21,14,25,228,,15,17,046,13*77
$GPGSV,4,2,13,18,60,021,29,20,19,083,10,21,67,141,27,24,37,076,10*7B
$GPGSV,4,3,13,27,27,289,24,32,44,236,35,46,51,180,,48,38,234,34*73
$GPGSV,4,4,13,51,53,198,29*42
$GPGLL,3026.86440,N,09747.02410,W,032519.00,A,D*71
$GPTXT,01,01,01,NMEA unknown msg*58
$GPRMC,032520.00,A,3026.86440,N,09747.02402,W,0.081,,050816,,,D*62
$GPVTG,,T,,M,0.081,N,0.150,K,D*2B
$GPGGA,032520.00,3026.86440,N,09747.02402,W,2,10,1.01,317.0,M,-24.0,M,,0000*64
$GPGSA,A,3,15,51,27,48,20,18,10,21,24,32,,,1.99,1.01,1.72*00
$GPGSV,4,1,13,08,07,318,09,10,48,318,21,14,25,228,,15,17,046,13*7E
$GPGSV,4,2,13,18,60,021,29,20,19,083,10,21,67,141,27,24,37,076,10*7B
$GPGSV,4,3,13,27,27,289,24,32,44,236,35,46,51,180,,48,38,234,34*73
$GPGSV,4,4,13,51,53,198,29*42
$GPGLL,3026.86440,N,09747.02402,W,032520.00,A,D*78
$GPRMC,032521.00,A,3026.86440,N,09747.02393,W,0.085,,050816,,,D*68
$GPVTG,,T,,M,0.085,N,0.158,K,D*27
$GPGGA,032521.00,3026.86440,N,09747.02393,W,2,10,1.01,316.8,M,-24.0,M,,0000*63
$GPGSA,A,3,15,51,27,48,20,18,10,21,24,32,,,1.99,1.01,1.71*03
$GPGSV,4,1,13,08,07,318,08,10,48,318,22,14,25,228,,15,17,046,12*7D
$GPGSV,4,2,13,18,60,021,29,20,19,083,11,21,67,141,27,24,37,076,16*7C
$GPGSV,4,3,13,27,27,289,24,32,44,236,35,46,51,180,,48,38,234,34*73
$GPGSV,4,4,13,51,53,198,29*42
$GPGLL,3026.86440,N,09747.02393,W,032521.00,A,D*76
$GPRMC,032522.00,A,3026.86435,N,09747.02385,W,0.030,,050816,,,D*60
$GPVTG,,T,,M,0.030,N,0.056,K,D*26
$GPGGA,032522.00,3026.86435,N,09747.02385,W,2,10,1.01,316.5,M,-24.0,M,,0000*68
$GPGSA,A,3,15,51,27,48,20,18,10,21,24,32,,,1.99,1.01,1.71*03
$GPGSV,4,1,13,08,07,318,08,10,48,318,22,14,25,228,,15,17,046,12*7D
$GPGSV,4,2,13,18,60,021,29,20,19,083,11,21,67,141,27,24,37,076,16*7C
$GPGSV,4,3,13,27,27,289,23,32,44,236,35,46,51,180,,48,38,234,34*74
$GPGSV,4,4,13,51,53,198,29*42
$GPGLL,3026.86435,N,09747.02385,W,032522.00,A,D*70
$GPRMC,032523.00,A,3026.86440,N,09747.02385,W,0.149,,050816,,,D*6C
$GPVTG,,T,,M,0.149,N,0.276,K,D*29
$GPGGA,032523.00,3026.86440,N,09747.02385,W,2,10,1.01,316.4,M,-24.0,M,,0000*6A
$GPGSA,A,3,15,51,27,48,20,18,10,21,24,32,,,1.99,1.01,1.71*03
$GPGSV,4,1,13,08,07,318,08,10,48,318,21,14,25,228,,15,17,046,12*7E
$GPGSV,4,2,13,18,60,021,29,20,19,083,11,21,67,141,27,24,37,076,16*7C
$GPGSV,4,3,13,27,27,289,23,32,44,236,35,46,51,180,,48,38,234,34*74
$GPGSV,4,4,13,51,53,198,29*42
$GPGLL,3026.86440,N,09747.02385,W,032523.00,A,D*73
$GPRMC,032524.00,A,3026.86443,N,09747.02382,W,0.160,,050816,,,D*64
$GPVTG,,T,,M,0.160,N,0.297,K,D*2D
$GPGGA,032524.00,3026.86443,N,09747.02382,W,2,10,1.01,316.1,M,-24.0,M,,0000*6C
$GPGSA,A,3,15,51,27,48,20,18,10,21,24,32,,,1.99,1.01,1.71*03
$GPGSV,4,1,13,08,07,318,08,10,48,318,21,14,25,228,,15,17,046,12*7E
$GPGSV,4,2,13,18,60,021,29,20,19,083,11,21,67,141,27,24,37,076,16*7C
$GPGSV,4,3,13,27,27,289,23,32,44,236,35,46,51,180,,48,38,234,34*74
$GPGSV,4,4,13,51,53,198,29*42
$GPGLL,3026.86443,N,09747.02382,W,032524.00,A,D*70
$GPRMC,032525.00,A,3026.86447,N,09747.02384,W,0.134,,050816,,,D*66
$GPVTG,,T,,M,0.134,N,0.249,K,D*2F
$GPGGA,032525.00,3026.86447,N,09747.02384,W,2,10,1.01,316.1,M,-24.0,M,,0000*6F
$GPGSA,A,3,15,51,27,48,20,18,10,21,24,32,,,1.99,1.01,1.71*03
$GPGSV,4,1,13,08,07,318,08,10,48,318,20,14,25,228,,15,17,046,12*7F
$GPGSV,4,2,13,18,60,021,29,20,19,083,11,21,67,141,27,24,37,076,16*7C
$GPGSV,4,3,13,27,27,289,24,32,44,236,35,46,51,180,,48,38,234,34*73
$GPGSV,4,4,13,51,53,198,29*42
$GPGLL,3026.86447,N,09747.02384,W,032525.00,A,D*73
$GPRMC,032526.00,A,3026.86449,N,09747.02382,W,0.123,,050816,,,D*6B
$GPVTG,,T,,M,0.123,N,0.228,K,D*2E
$GPGGA,032526.00,3026.86449,N,09747.02382,W,2,10,1.01,315.9,M,-24.0,M,,0000*6F
$GPGSA,A,3,15,51,27,48,20,18,10,21,24,32,,,1.99,1.01,1.71*03
$GPGSV,4,1,13,08,07,318,08,10,48,318,20,14,25,228,,15,17,046,12*7F
$GPGSV,4,2,13,18,60,021,29,20,19,083,11,21,67,141,27,24,37,076,16*7C
$GPGSV,4,3,13,27,27,289,24,32,44,236,35,46,51,180,,48,38,234,34*73
$GPGSV,4,4,13,51,53,198,29*42
$GPGLL,3026.86449,N,09747.02382,W,032526.00,A,D*78
$GPRMC,032527.00,A,3026.86450,N,09747.02373,W,0.105,,050816,,,D*68
$GPVTG,,T,,M,0.105,N,0.195,K,D*2F
$GPGGA,032527.00,3026.86450,N,09747.02373,W,2,10,1.01,315.3,M,-24.0,M,,0000*62
$GPGSA,A,3,15,51,27,48,20,18,10,21,24,32,,,1.99,1.01,1.71*03
$GPGSV,4,1,13,08,07,318,08,10,48,318,20,14,25,228,,15,17,046,11*7C
$GPGSV,4,2,13,18,60,021,29,20,19,083,14,21,67,141,27,24,37,076,17*78
$GPGSV,4,3,13,27,27,289,23,32,44,236,35,46,51,180,,48,38,234,34*74
$GPGSV,4,4,13,51,53,198,29*42
$GPGLL,3026.86450,N,09747.02373,W,032527.00,A,D*7F
$GPRMC,032528.00,A,3026.86449,N,09747.02363,W,0.048,,050816,,,D*66
$GPVTG,,T,,M,0.048,N,0.089,K,D*2B
$GPGGA,032528.00,3026.86449,N,09747.02363,W,2,10,1.01,314.7,M,-24.0,M,,0000*61
$GPGSA,A,3,15,51,27,48,20,18,10,21,24,32,,,1.99,1.01,1.71*03
$GPGSV,4,1,13,08,07,318,08,10,48,318,20,14,25,228,,15,17,046,11*7C
$GPGSV,4,2,13,18,60,021,28,20,19,083,14,21,67,141,27,24,37,076,20*7D
$GPGSV,4,3,13,27,27,289,23,32,44,236,35,46,51,180,,48,38,234,34*74
$GPGSV,4,4,13,51,53,198,29*42
$GPGLL,3026.86449,N,09747.02363,W,032528.00,A,D*79
$GPRMC,032529.00,A,3026.86453,N,09747.02367,W,0.122,,050816,,,D*65
$GPVTG,,T,,M,0.122,N,0.226,K,D*21
$GPGGA,032529.00,3026.86453,N,09747.02367,W,2,10,1.01,314.5,M,-24.0,M,,0000*6D
$GPGSA,A,3,15,51,27,48,20,18,10,21,24,32,,,1.99,1.01,1.71*03
$GPGSV,4,1,13,08,07,318,08,10,48,318,21,14,25,228,,15,17,046,11*7D
$GPGSV,4,2,13,18,60,021,28,20,19,083,14,21,67,141,27,24,37,076,21*7C
$GPGSV,4,3,13,27,27,289,23,32,44,236,34,46,51,180,,48,38,234,34*75
$GPGSV,4,4,13,51,53,198,29*42
$GPGLL,3026.86453,N,09747.02367,W,032529.00,A,D*77
$GPTXT,01,01,01,NMEA unknown msg*58
$GPTXT,01,01,01,NMEA unknown msg*58
$GPRMC,032530.00,A,3026.86459,N,09747.02372,W,0.084,,050816,,,D*6E
$GPVTG,,T,,M,0.084,N,0.155,K,D*2B
$GPGGA,032530.00,3026.86459,N,09747.02372,W,2,10,1.01,314.7,M,-24.0,M,,0000*69
$GPGSA,A,3,15,51,27,48,20,18,10,21,24,32,,,1.99,1.01,1.71*03
$GPGSV,4,1,13,08,07,318,08,10,48,318,21,14,25,228,,15,17,046,11*7D
$GPGSV,4,2,13,18,60,021,29,20,19,083,14,21,67,141,27,24,37,076,22*7E
$GPGSV,4,3,13,27,27,289,23,32,44,237,35,46,51,180,,48,38,234,34*75
$GPGSV,4,4,13,51,53,198,29*42
$GPGLL,3026.86459,N,09747.02372,W,032530.00,A,D*71
$GPRMC,032531.00,A,3026.86464,N,09747.02369,W,0.187,,050816,,,D*69
$GPVTG,,T,,M,0.187,N,0.346,K,D*29
$GPGGA,032531.00,3026.86464,N,09747.02369,W,2,10,1.01,314.3,M,-24.0,M,,0000*68
$GPGSA,A,3,15,51,27,48,20,18,10,21,24,32,,,1.99,1.01,1.71*03
$GPGSV,4,1,13,08,07,318,08,10,48,318,21,14,25,228,,15,17,046,11*7D
$GPGSV,4,2,13,18,60,021,29,20,19,083,14,21,67,141,27,24,37,076,22*7E
$GPGSV,4,3,13,27,27,289,23,32,44,237,35,46,51,180,,48,38,234,34*75
$GPGSV,4,4,13,51,53,198,29*42
$GPGLL,3026.86464,N,09747.02369,W,032531.00,A,D*74
$GPRMC,032532.00,A,3026.86466,N,09747.02374,W,0.117,,050816,,,D*6D
$GPVTG,,T,,M,0.117,N,0.217,K,D*25
$GPGGA,032532.00,3026.86466,N,09747.02374,W,2,10,1.01,314.6,M,-24.0,M,,0000*60
$GPGSA,A,3,15,51,27,48,20,18,10,21,24,32,,,1.99,1.01,1.71*03
$GPGSV,4,1,13,08,07,318,,10,48,318,20,14,25,228,,15,17,046,11*74
$GPGSV,4,2,13,18,60,021,29,20,19,083,14,21,67,141,26,24,37,076,23*7E
$GPGSV,4,3,13,27,27,289,23,32,44,237,34,46,51,180,,48,38,234,34*74
$GPGSV,4,4,13,51,53,198,29*42
$GPGLL,3026.86466,N,09747.02374,W,032532.00,A,D*79
$GPRMC,032533.00,A,3026.86465,N,09747.02379,W,0.051,,050816,,,D*61
$GPVTG,,T,,M,0.051,N,0.094,K,D*2F
$GPGGA,032533.00,3026.86465,N,09747.02379,W,2,10,1.01,314.9,M,-24.0,M,,0000*60
$GPGSA,A,3,15,51,27,48,20,18,10,21,24,32,,,1.99,1.01,1.71*03
$GPGSV,4,1,13,08,07,318,,10,48,318,20,14,25,228,,15,17,046,12*77
$GPGSV,4,2,13,18,60,021,29,20,19,083,13,21,67,141,26,24,37,076,23*79
$GPGSV,4,3,13,27,27,289,23,32,44,237,34,46,51,180,,48,38,234,34*74
$GPGSV,4,4,13,51,53,198,29*42
$GPGLL,3026.86465,N,09747.02379,W,032533.00,A,D*76
$GPRMC,032534.00,A,3026.86463,N,09747.02387,W,0.346,,050816,,,D*64
$GPVTG,,T,,M,0.346,N,0.640,K,D*25
$GPGGA,032534.00,3026.86463,N,09747.02387,W,2,10,1.01,315.6,M,-24.0,M,,0000*6E
$GPGSA,A,3,15,51,27,48,20,18,10,21,24,32,,,1.99,1.01,1.71*03
$GPGSV,4,1,13,08,07,318,,10,48,318,19,14,25,228,,15,17,046,12*7D
$GPGSV,4,2,13,18,60,021,29,20,19,083,13,21,67,141,26,24,37,076,23*79
$GPGSV,4,3,13,27,27,289,22,32,44,237,34,46,51,180,,48,38,234,34*75
$GPGSV,4,4,13,51,53,198,29*42
$GPGLL,3026.86463,N,09747.02387,W,032534.00,A,D*76
$GPRMC,032535.00,A,3026.86474,N,09747.02389,W,0.184,,050816,,,D*61
$GPVTG,,T,,M,0.184,N,0.340,K,D*2C
$GPGGA,032535.00,3026.86474,N,09747.02389,W,2,10,1.01,315.9,M,-24.0,M,,0000*68
$GPGSA,A,3,15,51,27,48,20,18,10,21,24,32,,,1.99,1.01,1.71*03
$GPGSV,4,1,13,08,07,318,,10,48,318,19,14,25,228,,15,17,046,12*7D
$GPGSV,4,2,13,18,60,021,28,20,19,083,13,21,67,141,26,24,37,076,22*79
$GPGSV,4,3,13,27,27,289,22,32,44,237,34,46,51,180,,48,38,234,34*75
$GPGSV,4,4,13,51,53,198,29*42
$GPGLL,3026.86474,N,09747.02389,W,032535.00,A,D*7F
$GPRMC,032536.00,A,3026.86485,N,09747.02436,W,0.998,,050816,,,D*6A
$GPVTG,,T,,M,0.998,N,1.848,K,D*2B
$GPGGA,032536.00,3026.86485,N,09747.02436,W,2,10,1.01,316.1,M,-24.0,M,,0000*6D
$GPGSA,A,3,15,51,27,48,20,18,10,21,24,32,,,1.99,1.01,1.71*03
$GPGSV,4,1,13,08,07,318,,10,48,318,19,14,25,228,,15,17,046,12*7D
$GPGSV,4,2,13,18,60,021,29,20,19,083,13,21,67,141,26,24,37,076,23*79
$GPGSV,4,3,13,27,27,289,20,32,44,237,34,46,51,180,,48,38,234,34*77
$GPGSV,4,4,13,51,53,198,29*42
$GPGLL,3026.86485,N,09747.02436,W,032536.00,A,D*71
$GPRMC,032537.00,A,3026.86512,N,09747.02462,W,0.955,,050816,,,D*64
$GPVTG,,T,,M,0.955,N,1.768,K,D*27
$GPGGA,032537.00,3026.86512,N,09747.02462,W,2,10,1.01,316.4,M,-24.0,M,,0000*67
$GPGSA,A,3,15,51,27,48,20,18,10,21,24,32,,,1.99,1.01,1.71*03
$GPGSV,4,1,13,08,07,318,,10,48,318,19,14,25,228,,15,17,046,12*7D
$GPGSV,4,2,13,18,60,021,28,20,19,083,13,21,67,141,25,24,37,076,23*7B
$GPGSV,4,3,13,27,27,289,21,32,44,237,34,46,51,180,,48,38,234,34*76
$GPGSV,4,4,13,51,53,198,29*42
$GPGLL,3026.86512,N,09747.02462,W,032537.00,A,D*7E
$GPRMC,032538.00,A,3026.86513,N,09747.02469,W,0.460,,050816,,,D*6A
$GPVTG,,T,,M,0.460,N,0.852,K,D*2B
$GPGGA,032538.00,3026.86513,N,09747.02469,W,2,10,1.01,316.5,M,-24.0,M,,0000*63
$GPGSA,A,3,15,51,27,48,20,18,10,21,24,32,,,1.99,1.01,1.71*03
$GPGSV,4,1,13,08,07,318,,10,48,318,19,14,25,228,,15,17,046,12*7D
$GPGSV,4,2,13,18,60,021,29,20,19,083,13,21,67,141,26,24,37,076,23*79
$GPGSV,4,3,13,27,27,289,20,32,44,237,34,46,51,180,,48,38,234,34*77
$GPGSV,4,4,13,51,53,198,29*42
$GPGLL,3026.86513,N,09747.02469,W,032538.00,A,D*7B
$GPRMC,032539.00,A,3026.86519,N,09747.02470,W,0.345,,050816,,,D*69
$GPVTG,,T,,M,0.345,N,0.638,K,D*29
$GPGGA,032539.00,3026.86519,N,09747.02470,W,2,10,1.01,316.3,M,-24.0,M,,0000*66
$GPGSA,A,3,15,51,27,48,20,18,10,21,24,32,,,1.99,1.01,1.71*03
$GPGSV,4,1,13,08,07,318,,10,48,318,20,14,25,228,,15,17,046,12*77
$GPGSV,4,2,13,18,60,021,29,20,19,083,17,21,67,141,26,24,37,076,23*7D
$GPGSV,4,3,13,27,27,289,20,32,44,237,34,46,51,180,,48,38,234,34*77
$GPGSV,4,4,13,51,53,198,29*42
$GPGLL,3026.86519,N,09747.02470,W,032539.00,A,D*78
$GPRMC,032540.00,A,3026.86521,N,09747.02472,W,0.214,,050816,,,D*6B
$GPVTG,,T,,M,0.214,N,0.396,K,D*2D
$GPGGA,032540.00,3026.86521,N,09747.02472,W,2,10,1.01,316.2,M,-24.0,M,,0000*60
$GPGSA,A,3,15,51,27,48,20,18,10,21,24,32,,,1.99,1.01,1.71*03
$GPGSV,4,1,13,08,07,318,,10,48,318,19,14,25,228,,15,17,046,12*7D
$GPGSV,4,2,13,18,60,021,29,20,19,083,17,21,67,141,25,24,37,076,23*7E
$GPGSV,4,3,13,27,27,289,21,32,44,237,34,46,51,180,,48,38,234,34*76
$GPGSV,4,4,13,51,53,198,29*42
$GPGLL,3026.86521,N,09747.02472,W,032540.00,A,D*7F
$GPRMC,032541.00,A,3026.86519,N,09747.02472,W,0.091,,050816,,,D*6E
$GPVTG,,T,,M,0.091,N,0.169,K,D*20
$GPGGA,032541.00,3026.86519,N,09747.02472,W,2,10,1.01,316.2,M,-24.0,M,,0000*6A
$GPGSA,A,3,15,51,27,48,20,18,10,21,24,32,,,1.99,1.01,1.71*03
$GPGSV,4,1,13,08,07,318,,10,48,318,19,14,25,228,,15,17,046,12*7D
$GPGSV,4,2,13,18,60,021,29,20,19,083,17,21,67,141,25,24,37,076,22*7F
$GPGSV,4,3,13,27,27,289,21,32,44,237,34,46,51,180,,48,38,234,34*76
$GPGSV,4,4,13,51,53,198,29*42
$GPGLL,3026.86519,N,09747.02472,W,032541.00,A,D*75
$GPTXT,01,01,01,NMEA unknown msg*58
$GPRMC,032542.00,A,3026.86517,N,09747.02465,W,0.113,,050816,,,D*6E
$GPVTG,,T,,M,0.113,N,0.210,K,D*26
$GPGGA,032542.00,3026.86517,N,09747.02465,W,2,10,1.01,316.0,M,-24.0,M,,0000*63
$GPGSA,A,3,15,51,27,48,20,18,10,21,24,32,,,1.99,1.01,1.71*03
$GPGSV,4,1,13,08,07,318,,10,48,318,19,14,25,228,,15,17,046,12*7D
$GPGSV,4,2,13,18,60,021,29,20,19,083,17,21,67,141,25,24,37,076,22*7F
$GPGSV,4,3,13,27,27,289,22,32,44,237,34,46,51,180,,48,38,234,34*75
$GPGSV,4,4,13,51,53,198,29*42
$GPGLL,3026.86517,N,09747.02465,W,032542.00,A,D*7E
$GPRMC,032543.00,A,3026.86507,N,09747.02448,W,0.297,,050816,,,D*6E
$GPVTG,,T,,M,0.297,N,0.550,K,D*2A
$GPGGA,032543.00,3026.86507,N,09747.02448,W,2,10,1.01,315.7,M,-24.0,M,,0000*68
$GPGSA,A,3,15,51,27,48,20,18,10,21,24,32,,,1.99,1.01,1.71*03
$GPGSV,4,1,13,08,07,318,,10,48,318,19,14,25,228,,15,17,046,12*7D
$GPGSV,4,2,13,18,60,021,29,20,19,083,17,21,67,141,25,24,37,076,22*7F
$GPGSV,4,3,13,27,27,289,22,32,44,237,34,46,51,180,,48,38,234,34*75
$GPGSV,4,4,13,51,53,198,29*42
$GPGLL,3026.86507,N,09747.02448,W,032543.00,A,D*71
$GPRMC,032544.00,A,3026.86514,N,09747.02452,W,0.092,,050816,,,D*67
$GPVTG,,T,,M,0.092,N,0.170,K,D*2B
$GPGGA,032544.00,3026.86514,N,09747.02452,W,2,10,1.01,315.5,M,-24.0,M,,0000*64
$GPGSA,A,3,15,51,27,48,20,18,10,21,24,32,,,1.99,1.01,1.71*03
$GPGSV,4,1,13,08,07,318,,10,48,318,18,14,25,228,,15,17,046,12*7C
$GPGSV,4,2,13,18,60,021,29,20,19,083,17,21,67,141,25,24,37,076,21*7C
$GPGSV,4,3,13,27,27,289,21,32,44,237,34,46,51,180,,48,38,234,34*76
$GPGSV,4,4,13,51,53,198,29*42
$GPGLL,3026.86514,N,09747.02452,W,032544.00,A,D*7F
$GPTXT,01,01,01,NMEA unknown msg*58
$GPTXT,01,01,01,NMEA unknown msg*58
$GPRMC,032545.00,A,3026.86511,N,09747.02448,W,0.085,,050816,,,D*6E
$GPVTG,,T,,M,0.085,N,0.158,K,D*27
$GPGGA,032545.00,3026.86511,N,09747.02448,W,2,10,1.01,315.6,M,-24.0,M,,0000*68
$GPGSA,A,3,15,51,27,48,20,18,10,21,24,32,,,1.99,1.01,1.71*03
$GPGSV,4,1,13,08,07,318,,10,48,318,18,14,25,228,,15,17,046,12*7C
$GPGSV,4,2,13,18,60,021,29,20,19,083,14,21,67,141,25,24,37,076,21*7F
$GPGSV,4,3,13,27,27,289,21,32,44,237,34,46,51,180,,48,38,234,34*76
$GPGSV,4,4,13,51,53,198,29*42
$GPGLL,3026.86511,N,09747.02448,W,032545.00,A,D*70
$GPRMC,032546.00,A,3026.86523,N,09747.02455,W,0.325,,050816,,,D*69
$GPVTG,,T,,M,0.325,N,0.602,K,D*26
$GPGGA,032546.00,3026.86523,N,09747.02455,W,2,10,1.01,315.3,M,-24.0,M,,0000*63
$GPGSA,A,3,15,51,27,48,20,18,10,21,24,32,,,1.99,1.01,1.71*03
$GPGSV,4,1,13,08,07,318,,10,48,318,17,14,25,228,,15,17,046,12*73
$GPGSV,4,2,13,18,60,021,29,20,19,083,16,21,67,141,26,24,37,076,21*7E
$GPGSV,4,3,13,27,27,289,20,32,44,237,34,46,51,180,,48,38,234,34*77
$GPGSV,4,4,13,51,53,198,29*42
$GPGLL,3026.86523,N,09747.02455,W,032546.00,A,D*7E
$GPRMC,032547.00,A,3026.86519,N,09747.02441,W,0.114,,050816,,,D*64
$GPVTG,,T,,M,0.114,N,0.211,K,D*20
$GPGGA,032547.00,3026.86519,N,09747.02441,W,2,10,1.01,315.1,M,-24.0,M,,0000*6C
$GPGSA,A,3,15,51,27,48,20,18,10,21,24,32,,,1.99,1.01,1.71*03
$GPGSV,4,1,13,08,07,318,,10,48,318,18,14,25,228,,15,17,046,12*7C
$GPGSV,4,2,13,18,60,021,29,20,19,083,18,21,67,141,25,24,37,076,20*72
$GPGSV,4,3,13,27,27,289,20,32,44,237,34,46,51,180,,48,38,234,34*77
$GPGSV,4,4,13,51,53,198,29*42
$GPGLL,3026.86519,N,09747.02441,W,032547.00,A,D*73
$GPRMC,032548.00,A,3026.86530,N,09747.02453,W,0.301,,050816,,,D*65
$GPVTG,,T,,M,0.301,N,0.558,K,D*2C
$GPGGA,032548.00,3026.86530,N,09747.02453,W,2,10,1.01,314.7,M,-24.0,M,,0000*6C
$GPGSA,A,3,15,51,27,48,20,18,10,21,24,32,,,1.99,1.01,1.71*03
$GPGSV,4,1,13,08,07,318,,10,48,318,18,14,25,228,,15,17,046,12*7C
$GPGSV,4,2,13,18,60,021,29,20,19,083,18,21,67,141,25,24,37,076,20*72
$GPGSV,4,3,13,27,27,289,21,32,44,237,34,46,51,180,,48,38,234,34*76
$GPGSV,4,4,13,51,53,198,29*42
$GPGLL,3026.86530,N,09747.02453,W,032548.00,A,D*74
$GPRMC,032549.00,A,3026.86535,N,09747.02446,W,0.484,,050816,,,D*6F
$GPVTG,,T,,M,0.484,N,0.896,K,D*29
$GPGGA,032549.00,3026.86535,N,09747.02446,W,2,10,1.01,314.3,M,-24.0,M,,0000*68
$GPGSA,A,3,15,51,27,48,20,18,10,21,24,32,,,1.99,1.01,1.71*03
$GPGSV,4,1,13,08,07,317,,10,48,318,18,14,25,228,,15,17,046,12*73
$GPGSV,4,2,13,18,60,021,29,20,19,083,17,21,67,141,25,24,37,076,19*77
$GPGSV,4,3,13,27,27,289,20,32,44,237,34,46,51,180,,48,38,234,34*77
$GPGSV,4,4,13,51,53,198,29*42
$GPGLL,3026.86535,N,09747.02446,W,032549.00,A,D*74
$GPRMC,032550.00,A,3026.86526,N,09747.02437,W,0.206,,050816,,,D*6F
$GPVTG,,T,,M,0.206,N,0.382,K,D*2B
$GPGGA,032550.00,3026.86526,N,09747.02437,W,2,10,1.01,314.1,M,-24.0,M,,0000*66
$GPGSA,A,3,15,51,27,48,20,18,10,21,24,32,,,1.99,1.01,1.71*03
$GPGSV,4,1,13,08,07,317,,10,48,318,18,14,25,228,,15,17,046,12*73
$GPGSV,4,2,13,18,60,021,29,20,19,083,18,21,67,141,25,24,37,076,19*78
$GPGSV,4,3,13,27,27,289,20,32,44,237,34,46,51,180,,48,38,234,34*77
$GPGSV,4,4,13,51,53,198,29*42
$GPGLL,3026.86526,N,09747.02437,W,032550.00,A,D*78
$GPTXT,01,01,01,NMEA unknown msg*58
$GPRMC,032551.00,A,3026.86526,N,09747.02443,W,0.140,,050816,,,D*6C
$GPVTG,,T,,M,0.140,N,0.259,K,D*2D
$GPGGA,032551.00,3026.86526,N,09747.02443,W,2,10,1.01,314.1,M,-24.0,M,,0000*64
$GPGSA,A,3,15,51,27,48,20,18,10,21,24,32,,,1.99,1.01,1.71*03
$GPGSV,4,1,13,08,07,317,,10,48,319,18,14,25,228,,15,17,046,13*73
$GPGSV,4,2,13,18,60,021,29,20,19,083,17,21,67,141,25,24,37,076,18*76
$GPGSV,4,3,13,27,27,289,20,32,44,237,34,46,51,180,,48,38,234,34*77
$GPGSV,4,4,13,51,53,198,29*42
$GPGLL,3026.86526,N,09747.02443,W,032551.00,A,D*7A
$GPTXT,01,01,01,NMEA unknown msg*58
$GPRMC,032552.00,A,3026.86520,N,09747.02441,W,0.042,,050816,,,D*68
$GPVTG,,T,,M,0.042,N,0.078,K,D*2F
$GPGGA,032552.00,3026.86520,N,09747.02441,W,2,10,1.01,314.0,M,-24.0,M,,0000*62
$GPGSA,A,3,15,51,27,48,20,18,10,21,24,32,,,1.99,1.01,1.71*03
$GPGSV,4,1,13,08,07,317,,10,48,319,18,14,25,228,,15,17,046,13*73
$GPGSV,4,2,13,18,60,021,29,20,19,083,18,21,67,141,25,24,37,076,17*76
$GPGSV,4,3,13,27,27,289,20,32,44,237,34,46,51,180,,48,38,234,34*77
$GPGSV,4,4,13,51,53,198,29*42
$GPGLL,3026.86520,N,09747.02441,W,032552.00,A,D*7D
$GPRMC,032553.00,A,3026.86519,N,09747.02440,W,0.092,,050816,,,D*6F
$GPVTG,,T,,M,0.092,N,0.170,K,D*2B
$GPGGA,032553.00,3026.86519,N,09747.02440,W,2,10,1.01,313.9,M,-24.0,M,,0000*66
$GPGSA,A,3,15,51,27,48,20,18,10,21,24,32,,,1.99,1.01,1.71*03
$GPGSV,4,1,13,08,07,317,,10,48,319,19,14,25,228,,15,17,046,13*72
$GPGSV,4,2,13,18,60,021,29,20,19,083,18,21,67,141,25,24,37,076,18*79
$GPGSV,4,3,13,27,27,289,20,32,44,237,34,46,51,180,,48,38,234,34*77
$GPGSV,4,4,13,51,53,198,29*42
$GPGLL,3026.86519,N,09747.02440,W,032553.00,A,D*77
$GPRMC,032554.00,A,3026.86532,N,09747.02454,W,0.463,,050816,,,D*6E
$GPVTG,,T,,M,0.463,N,0.857,K,D*2D
$GPGGA,032554.00,3026.86532,N,09747.02454,W,2,10,1.01,313.8,M,-24.0,M,,0000*6C
$GPGSA,A,3,15,51,27,48,20,18,10,21,24,32,,,1.99,1.01,1.71*03
$GPGSV,4,1,13,08,07,317,,10,48,319,19,14,25,228,,15,17,046,13*72
$GPGSV,4,2,13,18,60,021,29,20,19,083,18,21,67,141,25,24,37,076,17*76
$GPGSV,4,3,13,27,27,289,20,32,44,237,33,46,51,180,,48,38,234,34*70
$GPGSV,4,4,13,51,53,198,29*42
$GPGLL,3026.86532,N,09747.02454,W,032554.00,A,D*7C
